[{"id":2,"title":"1-2 SBCT Soldier-Centered Medical Home","address":"1-2 SBCT, P3849 RailRd Ave Joint Base Lewis-McChord, WA 98433","phone":"1-253-967-0877","img":"16B2760D-4DA0-4863-968CC2D7BC9D2662tmp-135.png","icon":"88A85C73-4C55-40B0-98D55B15F7BA41FCtmp-134.png","service_id":1,"latitude":47.07439,"longitude":-122.586709,"website":"http://www.mamc.amedd.army.mil/clinical/scmh/1-2_sbct.aspx","facebook":"","twitter":"","ice":"http://ice.disa.mil/index.cfm?fa=service_provider_list&site_id=957&service_category_id=11"},
{"id":3,"title":"1st Dental Battalion Camp Pendleton","address":"Bldg 2238 Vandegrift Rd","phone":"1-760-725-5419","img":"DE0DADD6-2085-4007-8C71230DA8FC4B55tmp-137.png","icon":"38E6384D-14B9-4A19-8130FAB9D1B7A640tmp-136.png","service_id":2,"latitude":33.293063,"longitude":-117.358564,"website":"http://www.med.navy.mil/sites/nmw/Commands/Pages/NDC%20Camp%20Pendleton.aspx","facebook":"https://m.facebook.com/pages/1st-Dental-BattalionNDC-Camp-Pendleton/365875363493328","twitter":"","ice":"http://ice.disa.mil/index.cfm?fa=card&service_provider_id=107398&site_id=148&dep=DoD"},
{"id":4,"title":"2d Dental Battalion","address":"Bldg 315 McHugh Blvd","phone":"1-910-451-2208","img":"8F9D810B-B08E-499C-BFCC02C0E3344063tmp-47.png","icon":"46F4CC92-4E95-4582-BD24142CA774BBECtmp-46.png","service_id":2,"latitude":34.663395,"longitude":-77.34727,"website":"http://www.2ndmlg.marines.mil/Units/2ndDentalBattalion.aspx","facebook":"https://www.facebook.com/2d-Dental-Battalion-160148554001690/","twitter":"","ice":"http://ice.disa.mil/"},
{"id":5,"title":"Adolescent and Young Adult Medicine Clinic","address":"3100 Schofield Rd, Bldg 1179 Fort Sam Houston, TX 78234","phone":"1-210-916-3160","img":"9F1A01B9-9A39-4A28-BDFF5F134A5DE3E8tmp-117.png","icon":"59986CE5-EFA4-4FB0-865F236834D95A92tmp-116.png","service_id":1,"latitude":29.4541653,"longitude":-98.4402466,"website":"https://www.bamc.amedd.army.mil/patient/apcmh/aya.asp","facebook":"https://www.facebook.com/BrookeArmyMedicalCenter","twitter":"https://twitter.com/BrookeArmyMed","ice":"http://ice.disa.mil/index.cfm?fa=service_provider_list&site_id=934"},
{"id":6,"title":"Altus Air Force Base","address":"301 N. 1st St Building 46 Altus AFB, OK 73523-5005","phone":"1-580-481-5235","img":"33D05DEF-92F1-48DF-8C0645B5B89F328Btmp-69.png","icon":"4F6E5EE6-6A65-4133-A12D8BFF73B45DCFtmp-68.png","service_id":3,"latitude":34.657348,"longitude":-99.288051,"website":"http://www.altus.af.mil/AboutUs/97thMedicalGroup.aspx","facebook":"https://www.facebook.com/AirForceMedicalService","twitter":"https://twitter.com/USAFHealth","ice":"http://ice.disa.mil/index.cfm?fa=site&site_id=397"},
{"id":7,"title":"Andrew Rader Army Health Clinic","address":"401 Carpenter Rd Fort Myer, VA 22211-1219","phone":"1-703-696-3630","img":"9C3A29A3-E499-4D56-8949FB48D5070AF1tmp-229.png","icon":"11B171E3-9F5C-47B7-A2FC4EB5A8FF1015tmp-228.png","service_id":1,"latitude":38.8700912,"longitude":-77.0772632,"website":"http://rader.nrmc.amedd.army.mil","facebook":"https://www.facebook.com/raderclinic/","twitter":"","ice":"http://ice.disa.mil/index.cfm?fa=site&site_id=356"},
{"id":8,"title":"Ansbach Army Health Clinic","address":"Building 8156, Comanche Boulevard Urlas Kaserne Ansbach 91522","phone":"49-6371-9464-3600","img":"82B02FC2-E8B7-411B-979F0C94FA29C4D7tmp-209.png","icon":"E9424225-B2F9-4D2E-9C8351F078603A9Etmp-208.png","service_id":1,"latitude":49.316801,"longitude":10.606315,"website":"http://rhce.amedd.army.mil/katterbach/index.cfm","facebook":"https://www.facebook.com/AnsbachClinic","twitter":"","ice":"http://ice.disa.mil/index.cfm?fa=card&service_provider_id=13516&site_id=158&service_category_id=11"},
{"id":9,"title":"Army Health Clinic SOUTHCOM","address":"9301 NW 33rd St Doral, FL 33172","phone":"1-305 437-1148","img":"","icon":"","service_id":1,"latitude":25.8065288,"longitude":-80.350667,"website":"http://www.southcom.mil/Military-and-Family-Services/Army-Health-Clinic-SOUTHCOM","facebook":"","twitter":"","ice":"http://ice.disa.mil"},
{"id":10,"title":"Barksdale Air Force Base","address":"243 Curtiss Rd, Suite 100 Barksdale AFB, LA 71110-2425","phone":"1-318-456-6555","img":"","icon":"","service_id":3,"latitude":32.492779,"longitude":-93.679231,"website":"","facebook":"https://www.facebook.com/BarksdaleAir Force Baseclinic","twitter":"https://twitter.com/USAFHealth","ice":"http://ice.disa.mil/index.cfm?fa=site&site_id=245"},
{"id":11,"title":"Barquist Army Health Clinic","address":"1434 Porter Street Fort Detrick, MD 21702-9210","phone":"1-301-619-7175","img":"CDFE6E4F-3DD9-4B27-B5B6CD3AFA9B0945tmp-195.png","icon":"8B518A85-A257-4BC5-9477F692EA8B632Ftmp-194.png","service_id":1,"latitude":39.43742971,"longitude":-77.42253855,"website":"http://bahc.narmc.amedd.army.mil/SitePages/Home.aspx","facebook":"https://www.facebook.com/FtDetrickBarquistArmyHealthClinic","twitter":"","ice":"http://ice.disa.mil/index.cfm?fa=card&s=438&sp=95837&dep=*DoD"},
{"id":12,"title":"Bassett Army Community Hospital","address":"4076 Neely Rd Fort Wainwright, AK 99703","phone":"1-907-361-4000","img":"DC86BC9C-5F88-409A-8F0C1FAC5B64EE04tmp-230.png","icon":"F2389290-CF4A-433A-893F6BCB99C756E4tmp-73.png","service_id":1,"latitude":64.829801,"longitude":147.661936,"website":"http://www.alaska.amedd.army.mil/about/About_Bassett_army_community_hospital.htm","facebook":"","twitter":"","ice":"http://ice.disa.mil/index.cfm?fa=site&site_id=360"},
{"id":13,"title":"Baumholder Army Health Clinic","address":"Reichenbacher Strasse 55774 Baumholder, Birkenfeld","phone":"49-6371-9464-5762","img":"DB5E58AC-ABC2-4098-8A8F366F2310028Dtmp-232.png","icon":"7B2C3F6F-654C-4006-98CAB9CDF231F01Etmp-231.png","service_id":1,"latitude":49.615771,"longitude":7.327779,"website":"http://rhce.amedd.army.mil/baumholder/index.cfm","facebook":"https://www.facebook.com/BaumholderHealthClinic/","twitter":"","ice":"http://ice.disa.mil/index.cfm?fa=service_provider_list&site_id=626&service_category_id=11"},
{"id":14,"title":"Bayne-Jones Army Community Hospital","address":"1585 Third St Fort Polk, LA 71459-5110","phone":"1-337-531-3118","img":"4D2113D1-ADA4-49C6-B1A0ACCC42FF84ADtmp-127.png","icon":"2089CB27-F5A6-4CF2-95630CC3CD5D14BBtmp-126.PNG","service_id":1,"latitude":31.0637041,"longitude":-93.2135797,"website":"http://bjach.polk.amedd.army.mil/","facebook":"https://www.facebook.com/BayneJonesACH","twitter":"https://twitter.com/BayneJonesACH","ice":"http://ice.disa.mil/index.cfm?fa=site&site_id=257"},
{"id":15,"title":"Beale Air Force Base","address":"15301 Warren Shingle Rd Beale AFB, CA 95903-1907","phone":"1-530-634-2941","img":"","icon":"","service_id":3,"latitude":39.115394,"longitude":-121.341842,"website":"","facebook":"https://www.facebook.com/Beale.9MDG","twitter":"https://twitter.com/USAFHealth","ice":"http://ice.disa.mil/index.cfm?fa=site&site_id=408"},
{"id":16,"title":"Bennett Health Clinic","address":"31st St and Battalion Ave Fort Hood, TX 76544","phone":"1-254-618-8039","img":"F90F17CD-2839-4DD6-AE5CEFFDF76F185Etmp-147.png","icon":"874FD7D6-EDFE-4B1B-A708104AD0ED5F69tmp-146.png","service_id":1,"latitude":31.1363979,"longitude":-97.7495385,"website":"https://crdamc.amedd.army.mil/bennett/services.aspx","facebook":"https://www.facebook.com/CRDAMC/?ref=br_tf","twitter":"https://twitter.com/CRDAMC","ice":"http://ice.disa.mil/index.cfm?fa=service_provider_list&site_id=73&service_category_id=11"},
{"id":17,"title":"BG Crawford F. Sams U.S. Army Health Clinic","address":"CDR US Army MEDDAC-Japan, APO AP 96343","phone":"81-046-407-4128","img":"3512119A-EDA7-49E1-AE0BCEC9E30CEF17tmp-233.png","icon":"","service_id":1,"latitude":35.4989,"longitude":139.3963,"website":"http://www.usarj.army.mil/organization/meddac/","facebook":"https://www.facebook.com/MEDDACJ/","twitter":"","ice":"http://ice.disa.mil"},
{"id":18,"title":"Blanchfield Army Community Hospital","address":"650 Joel Drive Fort Campbell, KY 42223","phone":"1-270-431-4677","img":"20087CE5-CAAF-43A3-93122B91BC2703CCtmp-235.png","icon":"D3042216-2724-4EBC-B1C925CA37E6DF25tmp-234.png","service_id":1,"latitude":36.636641,"longitude":-87.4496731,"website":"http://blanchfield.amedd.army.mil","facebook":"https://www.facebook.com/BACH.Fort.Campbell/","twitter":"https://twitter.com/BACH_Healthcare","ice":"http://ice.disa.mil/index.cfm?fa=card&site_id=339&service_provider_id=89939"},
{"id":19,"title":"Bluegrass Army Depot, Occupational Health Clinic","address":"431 Battlefield Memorial Highway, Bldg S-1 Richmond, KY 40475-5107","phone":"1-859-779-6559","img":"","icon":"BE9B21D7-0E39-4F4A-8CDEE33600321C8Btmp-185.png","service_id":1,"latitude":37.678832,"longitude":-84.254984,"website":"","facebook":"","twitter":"","ice":"http://ice.disa.mil"},
{"id":20,"title":"Bowe Troop Medical Clinic","address":"10020 Euphrates River Valley Rd Fort Drum, NY 13602","phone":"1-315-772-2778","img":"2C0F7EC5-7F2F-4215-80DEC3F4F085137Ftmp-238.png","icon":"E9498D77-3CF9-4E28-A9116799D77737CDtmp-237.png","service_id":1,"latitude":44.0517,"longitude":-75.7877,"website":"","facebook":"","twitter":"","ice":"http://ice.disa.mil"},
{"id":21,"title":"Brian Allgood Army Community Hospital Primary Care Clinic","address":"Unit 15244, Bldg 7005, APO AP 96205-5244 Seoul, South Korea APO AP 96205-0054","phone":"0505-737-CARE (2273); Press 1, Press 1","img":"39DDEC8E-86DA-4A93-BF703529A2E58395tmp-236.png","icon":"","service_id":1,"latitude":null,"longitude":null,"website":"https://www.korea.amedd.army.mil/Medical/PCMH/default.html","facebook":"https://www.facebook.com/121stCSHBAACH","twitter":"","ice":"http://ice.disa.mil/index.cfm?fa=service_provider_list&site_id=282&service_category_id=11"},
{"id":22,"title":"Brooke Army Medical Center","address":"3551 Roger Brooke Drive Fort Sam Houston, TX 78234","phone":"1-210-916-9900","img":"F1444DC1-27CD-4F72-9D213D15C519C0C0tmp-240.png","icon":"A393959B-706A-46F5-9FC620B1203228E2tmp-239.png","service_id":1,"latitude":29.460957,"longitude":-98.416272,"website":"https://www.bamc.amedd.army.mil/departments/tricare/","facebook":"https://www.facebook.com/BrookeArmyMedicalCenter/","twitter":"https://twitter.com/brookearmymed","ice":"http://ice.disa.mil/index.cfm?fa=service_provider_list&site_id=934"},
{"id":23,"title":"Brussels Army Health Clinic (NATO)","address":"J.F. Kennedylaan #12, 1933 Sterrebeek, Belgium","phone":"32-2-686-1515","img":"131B18B0-3B80-459B-BC2EEF3B4CCB8E06tmp-242.png","icon":"ABC94F25-2B1C-4ED0-A935FD4B8A4CE316tmp-241.png","service_id":1,"latitude":50.863566,"longitude":4.483535,"website":"http://rhce.amedd.army.mil/nato/index.cfm","facebook":"https://www.facebook.com/BrusselsHealthClinic/","twitter":"","ice":"http://ice.disa.mil/index.cfm?fa=card&service_provider_id=108048&site_id=547&service_category_id=11"},
{"id":24,"title":"Buckley Air Force Base","address":"13611 East Colfax Ave, Aurora, CO 80045","phone":"1-720-847-9355","img":"","icon":"","service_id":3,"latitude":39.7407701,"longitude":-104.8322174,"website":"http://www.buckley.af.mil/units/medical.asp","facebook":"https://www.facebook.com/460thMedicalGroup","twitter":"https://twitter.com/USAFHealth","ice":"http://ice.disa.mil/index.cfm?fa=site&site_id=385"},
{"id":25,"title":"Byars Health Clinic","address":"2864 Woodruff St Fort Bragg, NC 28307","phone":"1-910-907-7673","img":"C496D406-626C-4EA4-AED53CF5D85DBF56tmp-26.png","icon":"23DFF22D-ADFE-431C-82AEE781C7D3F3CAtmp-25.png","service_id":1,"latitude":35.1543889,"longitude":-78.9884387,"website":"http://www.wamc.amedd.army.mil","facebook":"https://www.facebook.com/WomackAMC","twitter":"https://twitter.com/WomackAMC","ice":"http://ice.disa.mil/index.cfm?fa=service_provider_list&site_id=1082&dep=%2aDoD"},
{"id":26,"title":"Byrd Family Medical Home","address":"7973 Thunder Rd Fort Campbell, TN 42223","phone":"1-270-431-4677","img":"BA83CFCD-71B8-4FEE-9259D1380A754C41tmp-41.png","icon":"6C667299-534C-40DD-A3FABAF15B4E9F91tmp-40.png","service_id":1,"latitude":36.6028916,"longitude":-87.4565864,"website":"http://blanchfield.amedd.army.mil","facebook":"https://www.facebook.com/BACH.Fort.Campbell/","twitter":"https://twitter.com/BACH_Healthcare","ice":"http://ice.disa.mil/index.cfm?fa=card&site_id=339&service_provider_id=89939"},
{"id":27,"title":"Camp Carroll TMC","address":"Bldg #S-263, APO, Armed Forces Pacific, 96260-0275","phone":"DSN: 737-CARE (2273) or Comm: 0505-737-CARE (2273); Press 2, Press 4 or DSN: 765-8505, Comm: 0505-765-8505","img":"0E889825-85B7-47C4-AEC47BAC4BC6BC23tmp-243.png","icon":"","service_id":1,"latitude":null,"longitude":null,"website":"","facebook":"https://www.facebook.com/CampCarrollSCMH/","twitter":"","ice":"https://ice.disa.mil/index.cfm?fa=service_provider_list&site_id=330&service_category_id=11"},
{"id":28,"title":"Camp Casey Health Clinic","address":"Bldg #S-807, APO, Armed Forces Pacific, 96224-0351","phone":"737-CARE (2273); Press 2, Press 2 or DSN: 730-4336, Comm: 0505-730-4336","img":"9CA66B0C-A772-45BD-B5063C7906EDE84Dtmp-244.png","icon":"","service_id":1,"latitude":null,"longitude":null,"website":"https://www.korea.amedd.army.mil/Medical/PCMH/Casey/default.html","facebook":"https://www.facebook.com/warriorcountrypcmh","twitter":"","ice":"https://ice.disa.mil/index.cfm?fa=service_provider_list&site_id=264&service_category_id=11"},
{"id":29,"title":"Camp Humphreys Health Clinic","address":"Bldg #S-555, APO, Armed Forces Pacific, 96271-0126","phone":"DSN: 737-CARE (2273) or Comm: 0505-737-CARE (2273); Press 2, Press 3 or DSN: 737-2767 or DSN: 753-5627, Comm: 0505-753-5627","img":"1EBE5B1D-8509-4C47-A9E4E6F4C2142A0Atmp-93.png","icon":"","service_id":1,"latitude":36.94931867,"longitude":127.023035,"website":"https://www.korea.amedd.army.mil/Medical/PCMH/Humphreys/default.html","facebook":"https://www.facebook.com/pages/Camp-Humphreys-Medical-Clinic/155378141290357","twitter":"","ice":"https://ice.disa.mil/index.cfm?fa=service_provider_list&site_id=209&service_category_id=11"},
{"id":30,"title":"Campbell Army Airfield Medical Home","address":"7149 Black Sheep Run Fort Campbell, KY 42223","phone":"1-270-431-4677","img":"1D6D13FC-6DEE-4BB4-97C873EB971D88E3tmp-91.png","icon":"62CB19D6-76CA-4F4B-BF17AA93B3251358tmp-90.png","service_id":1,"latitude":36.6659122,"longitude":-87.4891551,"website":"http://blanchfield.amedd.army.mil","facebook":"https://www.facebook.com/BACH.Fort.Campbell/","twitter":"https://twitter.com/BACH_Healthcare","ice":"http://ice.disa.mil/index.cfm?fa=card&site_id=339&service_provider_id=89939"},
{"id":31,"title":"Cannon Air Force Base","address":"208 West D.L. Ingram Ave Cannon AFB, New Mexico 88103-5014","phone":"1-575-784-2778","img":"","icon":"","service_id":3,"latitude":34.398477,"longitude":-103.32645,"website":"http://www.cannon.af.mil/Units/27thSpecialOperationsMedicalGroup.aspx","facebook":"https://www.facebook.com/pages/AFMS-Cannon-27th-Special-Operations-Medical-Group/182211111798421","twitter":"https://twitter.com/USAFHealth","ice":"http://ice.disa.mil/index.cfm?fa=site&site_id=415"},
{"id":32,"title":"Carl R. Darnall Army Medical Center","address":"36065 Santa Fe Loop Fort Hood, TX 76544","phone":"1-254-288-8280","img":"11A2FAB0-C353-49EB-8259D97ACFCC2701tmp-246.png","icon":"7847A55F-DABF-49AE-A39B2CEE7BDBD799tmp-245.png","service_id":1,"latitude":31.126689,"longitude":-97.795535,"website":"https://www.crdamc.amedd.army.mil/fmrc/","facebook":"https://www.facebook.com/CRDAMC/?ref=br_tf","twitter":"https://twitter.com/CRDAMC","ice":"http://ice.disa.mil/index.cfm?fa=service_provider_list&site_id=73&service_category_id=11"},
{"id":33,"title":"Clark Health Clinic","address":"Bldg 5-4257 Bastogne St Fort Bragg, NC 28310","phone":"1-910-907-2515","img":"72864D3F-9396-4672-8830B276823C9701tmp-248.png","icon":"9E615619-182D-46A0-A4584DF5BF889721tmp-247.png","service_id":1,"latitude":35.129,"longitude":-78.9955498,"website":"http://www.wamc.amedd.army.mil","facebook":"https://www.facebook.com/WomackAMC","twitter":"https://twitter.com/WomackAMC","ice":"http://ice.disa.mil/index.cfm?fa=service_provider_list&site_id=1082&dep=%2aDoD"},
{"id":34,"title":"Columbus Air Force Base","address":"201 Independence Drive, Suite 101 Columbus, MS 39710-5300","phone":"1-662-434-2273","img":"","icon":"","service_id":3,"latitude":33.630135,"longitude":-88.45315,"website":"http://www.airforcemedicine.af.mil/MTF/Columbus","facebook":"https://www.facebook.com/14MDG","twitter":"https://twitter.com/USAFHealth","ice":"http://ice.disa.mil/index.cfm?fa=site&site_id=710"},
{"id":35,"title":"Combined Troop Medical Clinic","address":"3506 Gerogia Ave Fort Polk, LA 71459-5110","phone":"1-337-531-0289","img":"0CA27EA4-78DC-49D8-AC6DBDF44A69A374tmp-143.png","icon":"33A40741-1C7A-4C89-8C435CADA9C69F0Ctmp-142.PNG","service_id":1,"latitude":31.0475919,"longitude":-93.206018,"website":"http://bjach.polk.amedd.army.mil/","facebook":"https://www.facebook.com/BayneJonesACH","twitter":"https://twitter.com/BayneJonesACH","ice":"http://ice.disa.mil/index.cfm?fa=site&site_id=257"},
{"id":36,"title":"Connelly Clinic","address":"Bldg 29709, B St Fort Gordon, GA 30905","phone":"1-706-787-5143","img":"","icon":"DB3BC46D-D81F-40B0-BAB33035939E0EEAtmp-158.png","service_id":1,"latitude":33.4243497,"longitude":-82.1438044,"website":"","facebook":"","twitter":"","ice":"http://ice.disa.mil"},
{"id":37,"title":"Conner Troop Medical Clinic","address":"10506 Euphrates River Valley Rd Fort Drum, NY 13602","phone":"1-315-772-2778","img":"AC07132A-B171-4363-A04C28834F1CE810tmp-53.png","icon":"D1114036-489B-407C-9F90537358E5F71Ftmp-52.png","service_id":1,"latitude":44.0517,"longitude":-75.7877,"website":"http://www.drum.amedd.army.mil/HealthcareServices/SitePages/Conner%20Troop%20Medical%20Clinic.aspx","facebook":"","twitter":"","ice":"http://ice.disa.mil/index.cfm?fa=service_provider_list&site_id=45&service_category_id=11"},
{"id":38,"title":"Consoldiated Troop Medical Clinic (MACH)","address":"Bldg 2515 Sightseeing Rd Fort Benning, GA 31905","phone":"1-762-408-2273","img":"139C909D-DA91-4F1D-A1ED7A6533AF10B3tmp-221.png","icon":"6AF04A27-EDA9-435E-B1D59CC1473BD83Btmp-220.png","service_id":1,"latitude":32.3562535,"longitude":-84.9789679,"website":"http://martin.amedd.army.mil/healthcareServices/WarriorCare.aspx","facebook":"https://www.facebook.com/Martin-Army-Community-Hospital-106090889433774/","twitter":"","ice":"http://ice.disa.mil/index.cfm?fa=site&site_id=839"},
{"id":39,"title":"Copperas Cove Medical Home","address":"458 Town Square Copperas Cove, TX 76522","phone":"1-254-553-5801","img":"0DB5300B-9BEC-4768-AD5DAEEEED1AABBFtmp-217.png","icon":"E7856382-B84F-4D19-9FA8E6D7D1098476tmp-216.png","service_id":1,"latitude":31.114628,"longitude":-97.908916,"website":"https://www.crdamc.amedd.army.mil/med-homes/","facebook":"https://www.facebook.com/CRDAMC/?ref=br_tf","twitter":"https://twitter.com/CRDAMC","ice":"http://ice.disa.mil/index.cfm?fa=service_provider_list&site_id=73&service_category_id=11"},
{"id":40,"title":"CPT Jennifer M. Moreno Primary Care Clinic","address":"3100 Schofield Rd, Bldg 1179 Fort Sam Houston, TX 78234","phone":"1-210-916-3000","img":"B944D048-942E-4AFC-879D643DF2EAD7EEtmp-173.png","icon":"2EF96279-4AB9-4AAC-A196BB3FC5DA4D89tmp-172.png","service_id":1,"latitude":29.4541653,"longitude":-98.4402466,"website":"https://www.bamc.amedd.army.mil/departments/family-medicine/fms.asp","facebook":"https://www.facebook.com/BrookeArmyMedicalCenter","twitter":"https://twitter.com/BrookeArmyMed","ice":"http://ice.disa.mil/index.cfm?fa=service_provider_list&site_id=934"},
{"id":41,"title":"Custer Hill Health Clinic","address":"7672 Estes Rd Fort Riley, KS, 66442","phone":"1-785-239-4411","img":"","icon":"","service_id":1,"latitude":39.109662,"longitude":-96.811155,"website":"http://iach.amedd.army.mil/","facebook":"https://www.facebook.com/IrwinArmyCommunityHospital/","twitter":"","ice":"http://ice.disa.mil/"},
{"id":42,"title":"Davis-Monthan Air Force Base","address":"4175 South Alamo Ave Davis-Monthan AFB, AZ 85707-4405","phone":"1-520-228-2575","img":"BB27904A-C3FB-46AD-BF0EC862954647D2tmp-133.png","icon":"E9616997-A887-4BC4-BC973F36B4E7DF4Btmp-132.png","service_id":3,"latitude":32.173288,"longitude":-110.861124,"website":"http://www.airforcemedicine.af.mil/MTF/Davis-Monthan/","facebook":"https://www.facebook.com/pages/AFMS-Davis-Monthan-Air Force Base-355th-Medical-Group/220011534677895?fref=ts","twitter":"https://twitter.com/USAFHealth","ice":"http://ice.disa.mil/index.cfm?fa=site&site_id=188"},
{"id":43,"title":"DiRaimondo Soldier Centered Medical Home","address":"Bldg 1041 Fort Carson, CO 80913","phone":"1-719-524-2047","img":"E6F7F360-39DA-45CC-A30BF8B009357DE7tmp-175.png","icon":"B5A43E2F-C37D-4092-A6D866DF12C6C2A0tmp-174.png","service_id":1,"latitude":38.75176,"longitude":-104.79126,"website":"http://www.evans.amedd.army.mil/Woods/DiRiamondo.htm","facebook":"","twitter":"","ice":"http://ice.disa.mil/index.cfm?fa=site&site_id=924"},
{"id":44,"title":"Dover Air Force Base","address":"300 Tuskegee Boulevard Dover AFB, DE 19902","phone":"1-302-730-4633","img":"A4533FAF-5AEA-4A41-91B69CA2E4BB5720tmp-57.png","icon":"873591C8-AD2F-45C8-ACEC5FA7BC31CA29tmp-56.png","service_id":3,"latitude":39.120933,"longitude":-75.471961,"website":"http://www.airforcemedicine.af.mil/MTF/Dover","facebook":"https://www.facebook.com/436MDG","twitter":"https://twitter.com/USAFHealth","ice":"http://ice.disa.mil/index.cfm?fa=site&site_id=342"},
{"id":45,"title":"Dr. Mary E. Walker Center","address":"170 Inner Loop Rd Fort Irwin, CA 92310","phone":"1-760-380-7349","img":"43433E4D-93BB-4625-AB717474494A8D2Btmp-179.png","icon":"7A0360E6-46B3-4763-97677A75F7F7DCA2tmp-178.png","service_id":1,"latitude":35.2674973,"longitude":-116.689522,"website":"http://www.irwin.amedd.army.mil/pages/mewc.html","facebook":"https://www.facebook.com/WeedArmy/","twitter":"","ice":"http://ice.disa.mil/index.cfm?fa=site&site_id=443"},
{"id":46,"title":"Dunham Army Health Clinic","address":"450 Gibner Rd Carlisle, PA 17013","phone":"1-717-245-3400","img":"031A12A3-175D-4CF1-962E66994C0164DDtmp-97.png","icon":"3CF53D5A-12A1-4C0F-A3503AA86C053F0Atmp-96.png","service_id":1,"latitude":40.2085402,"longitude":-77.1767642,"website":"http://dunham.narmc.amedd.army.mil/SitePages/Home.aspx","facebook":"https://www.facebook.com/DUSAHC/?ref=bookmarks","twitter":"https://twitter.com/dunhamhealth","ice":"http://ice.disa.mil"},
{"id":47,"title":"Dyess Air Force Base","address":"697 Louisiana Drive Dyess AFB, Texas 79607-1367","phone":"1-325-696-4677","img":"","icon":"","service_id":3,"latitude":32.432273,"longitude":-99.812054,"website":"http://www.dyess.af.mil/units/7thmedicalgroup.asp","facebook":"https://www.facebook.com/pages/AFMS-Dyess-7th-Medical-Group/213559558658022","twitter":"https://twitter.com/USAFHealth","ice":"http://ice.disa.mil/index.cfm?fa=site&site_id=347"},
{"id":48,"title":"East Bliss Health and Dental Clinic","address":"21227 Torch St Biggs Field, TX 79918","phone":"1-915-742-2273","img":"0B97C528-D0AE-4839-90A9A013BEC2890Btmp-149.png","icon":"F587AD78-9C23-48E7-91673B3DF0C02FABtmp-148.png","service_id":1,"latitude":31.868339,"longitude":-106.333788,"website":"https://www.wbamc.amedd.army.mil/PCMH/EastBliss/","facebook":"https://www.facebook.com/WBAMC1","twitter":"https://twitter.com/WBAMCArmyMed","ice":"http://ice.disa.mil/index.cfm?fa=site&site_id=435"},
{"id":49,"title":"Edwards Air Force Base","address":"Building 5525 30 Nightingale Rd Edwards AFB, California 93524-1730","phone":"1-661-277-7118","img":"","icon":"","service_id":3,"latitude":34.9125982,"longitude":-117.9506593,"website":"","facebook":"https://www.facebook.com/AirForceMedicalService","twitter":"https://twitter.com/USAFHealth","ice":"http://ice.disa.mil/index.cfm?fa=site&site_id=278"},
{"id":50,"title":"Eglin Air Force Base","address":"307 Boatner Rd, Suite 114 Eglin AFB, Florida 32542-1282","phone":"1-850-883-8600","img":"","icon":"","service_id":3,"latitude":30.459296,"longitude":-86.553319,"website":"http://www.eglin.af.mil/units/eglinhospital.asp","facebook":"https://www.facebook.com/pages/AFMS-Eglin-96-Medical-Group/144048225654972","twitter":"https://twitter.com/USAFHealth","ice":"http://ice.disa.mil/index.cfm?fa=site&site_id=429"},
{"id":51,"title":"Eielson Air Force Base","address":"2630 Central Ave, Eielson AFB, AK 99702-2397","phone":"1-907-377-1461","img":"201C9C97-8291-4ED4-890293285868CE30tmp-139.png","icon":"DA6B8546-5668-4F28-9729251B171B3CCCtmp-138.png","service_id":3,"latitude":64.6735147,"longitude":-147.085939,"website":"http://www.airforcemedicine.af.mil/MTF/Eielson/","facebook":"https://www.facebook.com/EielsonClinic/?ref=bookmarks","twitter":"","ice":"http://ice.disa.mil/index.cfm?fa=site&site_id=430"},
{"id":52,"title":"Eisenhower Army Medical Center","address":"300 East Hospital Rd Fort Gordon, GA 30905","phone":"1-706-787-5811","img":"6DB011E6-B88B-40D0-97411A6B059E8052tmp-227.png","icon":"B5CF241A-B12C-4F54-936D07A785321481tmp-226.png","service_id":1,"latitude":33.430571,"longitude":-82.125742,"website":"http://eisenhower.amedd.army.mil/SitePages/Home.aspx","facebook":"https://www.facebook.com/DDEAMC","twitter":"","ice":"http://ice.disa.mil/index.cfm?fa=site&site_id=707"},
{"id":53,"title":"Ellsworth Air Force Base","address":"2900 Doolittle Drive Ellsworth AFB, South Dakota 57706-4821","phone":"1-605-385-6700","img":"","icon":"","service_id":3,"latitude":44.146427,"longitude":-103.074972,"website":"http://www.ellsworth.af.mil/units/28thmedicalgroup.asp","facebook":"https://www.facebook.com/28thMedicalGroup","twitter":"https://twitter.com/USAFHealth","ice":"http://ice.disa.mil/index.cfm?fa=site&site_id=246"},
{"id":54,"title":"Evans Army Community Hospital","address":"1650 Cochrane Circle Fort Carson, CO 80913","phone":"1-719-526-7000","img":"2E5A284A-87B6-4F53-B6EB82A208FB813Atmp-81.png","icon":"5866D10B-0024-4879-82F13C28E5BFD66Etmp-80.png","service_id":1,"latitude":38.71882,"longitude":-104.7957,"website":"http://www.evans.amedd.army.mil/","facebook":"https://www.facebook.com/EvansArmyCommunityHospital","twitter":"https://twitter.com/EvansHospital","ice":"http://ice.disa.mil/index.cfm?fa=site&site_id=924"},
{"id":55,"title":"Fairchild Air Force Base","address":"701 Hospital Loop, Suite 306 Fairchild AFB, WA 99011-8704","phone":"1-509-247-2361","img":"","icon":"","service_id":3,"latitude":47.635586,"longitude":-117.651287,"website":"http://www.fairchild.af.mil/units/92ndmedicalgroup/index.asp","facebook":"https://www.facebook.com/92MDG","twitter":"https://twitter.com/USAFHealth","ice":"http://ice.disa.mil/index.cfm?fa=site&site_id=432"},
{"id":56,"title":"Farrelly Health Clinic","address":"8072 Normandy Drive Fort Riley, KS 66442","phone":"1-785-240-5591","img":"B414BD3D-07AA-4C9A-9DD874EB0A537F9Btmp-250.png","icon":"6FD4A4CB-3245-4F5F-A5C2FCDECF1D6577tmp-249.png","service_id":1,"latitude":39.109268,"longitude":-96.800207,"website":"http://iach.amedd.army.mil/","facebook":"https://www.facebook.com/IrwinArmyCommunityHospital/","twitter":"","ice":"http://ice.disa.mil/"},
{"id":57,"title":"Fayetteville Medical Home","address":"2350 Bentridge Lane Fayetteville, NC 28314","phone":"1-910-908-9663","img":"5BCFE62C-F2A5-4C44-9629E76014F04698tmp-45.png","icon":"27833D53-455E-4DE7-A5F122AAB6A1F01Ctmp-44.png","service_id":1,"latitude":35.0335556,"longitude":-79.0242443,"website":"http://www.wamc.amedd.army.mil","facebook":"https://www.facebook.com/WomackAMC","twitter":"https://twitter.com/WomackAMC","ice":"http://ice.disa.mil/index.cfm?fa=service_provider_list&site_id=1082&dep=%2aDoD"},
{"id":58,"title":"Flint Hills Medical Home","address":"623 Southwind Drive Junction City, KS 66441","phone":"1-785-240-9200","img":"52FF9711-6A1E-43FA-9491E2DD5E31E71Ftmp-115.png","icon":"7768B4E0-E81D-496E-982B2F024118F90Etmp-114.png","service_id":1,"latitude":39.016564,"longitude":-96.863538,"website":"http://iach.amedd.army.mil/","facebook":"https://www.facebook.com/IrwinArmyCommunityHospital/","twitter":"","ice":"http://ice.disa.mil/"},
{"id":59,"title":"Fort Greely Army Medical Home","address":"Bldg 665 E. 5th St Fort Greely, AK 99731","phone":"1-907-873-4975","img":"F6C08AC1-979A-4DC6-B81E288312B42CADtmp-197.png","icon":"C2799BA6-7622-4C7F-A13C598F49149212tmp-196.png","service_id":1,"latitude":63.973507,"longitude":145.725253,"website":"http://www.alaska.amedd.army.mil/Ft%20Greely/Fort_Greely_PCMH.htm","facebook":"","twitter":"","ice":"http://ice.disa.mil/index.cfm?fa=site&site_id=709"},
{"id":60,"title":"Fort Hood Medical Home","address":"36000 Darnall Loop Fort Hood, Texas 76544","phone":"1-254-285-6270","img":"3EC9903C-A223-4743-9A9718321A00DC38tmp-157.png","icon":"8F8BA2BA-ADBF-44E6-9029EF4C845A03F9tmp-156.png","service_id":1,"latitude":31.130123,"longitude":-97.774817,"website":"https://www.crdamc.amedd.army.mil/med-homes/","facebook":"https://www.facebook.com/CRDAMC/?ref=br_tf","twitter":"https://twitter.com/CRDAMC","ice":"http://ice.disa.mil/index.cfm?fa=service_provider_list&site_id=73&service_category_id=11"},
{"id":61,"title":"Fort MacArthur Clinic","address":"2400 S. Pacific Ave Building 30 San Pedro, CA 90731","phone":"1-310-653-2873","img":"","icon":"","service_id":1,"latitude":33.721734,"longitude":-118.287671,"website":"http://www.losangeles.af.mil/newclinicpage.asp","facebook":"https://www.facebook.com/61MDS","twitter":"https://twitter.com/USAFHealth","ice":"http://ice.disa.mil/index.cfm?fa=site&site_id=392"},
{"id":62,"title":"Fort McCoy Army Health Clinic","address":"Bldg 2669 W. Regimental Ave Fort McCoy, WI 54656-5263","phone":"1-608-388-3025","img":"C36852F1-D27B-4197-9CD0A7497ABF5458tmp-252.png","icon":"928D2F85-0040-45E2-861258C6E7996C8Dtmp-251.png","service_id":1,"latitude":44.0274793,"longitude":-90.6925303,"website":"http://www.iach.knox.amedd.army.mil/SitePages/Fort%20McCoy%20Clinic.aspx","facebook":"","twitter":"","ice":"http://ice.disa.mil/index.cfm?fa=service_provider_list&site_id=444&service_category_id=11"},
{"id":63,"title":"Fox Army Health Center","address":"4100 Goss Rd SW Redstone Arsenal, AL 35809-7000","phone":"1-256-955-8888","img":"C4EEF2AC-DEC4-4573-B1383A0EA5201860tmp-105.png","icon":"5A453889-15C5-4C5F-A9431A3C8800DA70tmp-104.png","service_id":1,"latitude":34.6962012,"longitude":-86.66251,"website":"http://www.redstone.amedd.army.mil","facebook":"https://www.facebook.com/pages/Fox-Army-Health-Center/260595728505","twitter":"https://twitter.com/@FoxAHC","ice":"http://ice.disa.mil"},
{"id":64,"title":"Francis E. Warren Air Force Base (AFGSC)","address":"6900 Alden Drive FE Warren AFB, Wyoming 82005-3913","phone":"1-307-773-3461","img":"E8F333D0-AA49-49ED-95A9B2FFCC028310tmp-51.png","icon":"68B37E51-4034-40AD-AD88B05B21C8CBB5tmp-50.png","service_id":3,"latitude":41.156284,"longitude":-104.856287,"website":"http://www.airforcemedicine.af.mil/MTF/FE-Warren/","facebook":"https://www.facebook.com/fewarren90MDG","twitter":"https://twitter.com/USAFHealth","ice":"http://ice.disa.mil/index.cfm?fa=site&site_id=386"},
{"id":65,"title":"General Leonard Wood Army Community Hospital","address":"4430 Missouri Ave Ft Leonard Wood, MO 65473","phone":"1-573-596-1766","img":"5778B731-7FA0-42D7-A5173872E2B5304Atmp-205.png","icon":"81657E82-56E5-4084-AAA441CE060A7C81tmp-203.png","service_id":1,"latitude":37.766292,"longitude":-92.115095,"website":"http://glwach.amedd.army.mil","facebook":"https://www.facebook.com/GLWACH","twitter":"https://twitter.com/glwachonflw","ice":"http://ice.disa.mil/"},
{"id":66,"title":"Goodfellow Air Force Base","address":"271 Fort Richardson Ave Goodfellow AFB, Texas 76908-4902","phone":"1-325-654-3149","img":"","icon":"","service_id":3,"latitude":31.431487,"longitude":-100.417357,"website":"","facebook":"https://www.facebook.com/AFMSGoodfellow17thMedicalGroup?fref=ts","twitter":"https://twitter.com/USAFHealth","ice":"http://ice.disa.mil/index.cfm?fa=site&site_id=453"},
{"id":67,"title":"Grafenwoehr Army Health Clinic","address":"Building 475 Grafenwoehr 92655","phone":"49-6371-9464-3000","img":"GRAFClinic.png","icon":"6509F359-7AD2-4A02-82F429EBC6A5879Dtmp-198.png","service_id":1,"latitude":49.709881,"longitude":11.903177,"website":"http://rhce.amedd.army.mil/grafenwoehr/index.cfm","facebook":"https://www.facebook.com/GrafClinic","twitter":"","ice":"https://ice.disa.mil/index.cfm?fa=site&site_id=3"},
{"id":68,"title":"Grand Forks Air Force Base","address":"1599 J. St Grand Forks AFB, North Dakota 58205-6332","phone":"1-701-747-5601","img":"314CBA41-9CA3-4E2E-A677CBD846181996tmp-254.png","icon":"F54B48C0-1B82-4E6D-8BED4B523C1150D6tmp-253.png","service_id":3,"latitude":47.958077,"longitude":-97.372543,"website":"http://www.grandforks.af.mil/Units/319th-Medical-Group","facebook":"https://www.facebook.com/AFMS-Grand-Forks-319th-Medical-Group-184221094950882/","twitter":"https://twitter.com/USAFHealth","ice":"http://ice.disa.mil/index.cfm?fa=site&site_id=454"},
{"id":69,"title":"Guthrie Ambulatory Health Care Clinic","address":"11050 Mt Belvedere Boulevard Fort Drum, NY 13602","phone":"1-315-772-2778","img":"A3D0FB81-5E37-44B3-8D6D80D1744A57E0tmp-256.png","icon":"AC577917-9254-4E7E-9FA5E04E4498CC04tmp-255.png","service_id":1,"latitude":44.0526069,"longitude":-75.8084765,"website":"http://www.drum.amedd.army.mil/SitePages/Home.aspx","facebook":"https://www.facebook.com/fortdrummeddac/","twitter":"https://twitter.com/FortDrumMEDDAC","ice":"http://ice.disa.mil/index.cfm?fa=service_provider_list&site_id=45&service_category_id=11"},
{"id":70,"title":"Hanscom Air Force Base","address":"90 Vandenberg Drive Building #1900 Hanscom AFB, Massachusetts 01731-2139","phone":"1-781-225-6789","img":"B5D6C2E7-2901-46A5-8DE95C1967AFDACEtmp-258.png","icon":"2C585277-B82A-42D1-859008F72B967799tmp-257.png","service_id":3,"latitude":42.460166,"longitude":-71.279288,"website":"http://www.hanscom.af.mil/","facebook":"https://www.facebook.com/HanscomAirForceBase/","twitter":"https://twitter.com/USAFHealth","ice":"http://ice.disa.mil/index.cfm?fa=site&site_id=458"},
{"id":71,"title":"Harker Heights Medical Home","address":"201 E. Central Expressway Harker Heights, TX 76548","phone":"1-254-553-5901","img":"BB2857B7-146C-480B-B91ED3560DD55FACtmp-103.png","icon":"2773E2B2-DA64-4C89-AA0EDAD6DD0FB2F9tmp-102.png","service_id":1,"latitude":31.073743,"longitude":-97.664964,"website":"https://www.crdamc.amedd.army.mil/med-homes/","facebook":"https://www.facebook.com/CRDAMC/?ref=br_tf","twitter":"https://twitter.com/CRDAMC","ice":"http://ice.disa.mil/index.cfm?fa=service_provider_list&site_id=73&service_category_id=11"},
{"id":72,"title":"Harmony Church Troop Medical and Dental Clinic","address":"6796 Old Cusetta Rd, Bldg 4204 Fort Benning, GA 31905","phone":"1-762-408-2273","img":"E23CDAE6-3EF5-4890-969613F6A429E9B5tmp-167.png","icon":"BAFBF7C8-B967-4469-A846F41AA98C9EC2tmp-166.png","service_id":1,"latitude":32.3662688,"longitude":-84.8536958,"website":"http://martin.amedd.army.mil/healthcareServices/WarriorCare.aspx","facebook":"https://www.facebook.com/Martin-Army-Community-Hospital-106090889433774/","twitter":"","ice":"http://ice.disa.mil/index.cfm?fa=site&site_id=839"},
{"id":73,"title":"Hawks Troop Medical Clinic","address":"Fort Stewart PX, 412, Lindquist Ave Fort Stewart, GA 31314","phone":"1-800-652-9221","img":"01326B49-95E0-4A6E-9CA01168C65C61A0tmp-111.png","icon":"D404EE96-34A7-47F8-A7A6C6D285B1AD01tmp-110.png","service_id":1,"latitude":31.87035,"longitude":-81.609486,"website":"http://winn.amedd.army.mil/HealthcareServices/SitePages/Hawks%20TMC.aspx","facebook":"https://www.facebook.com/winncares","twitter":"https://twitter.com/winn_ach","ice":"http://ice.disa.mil/index.cfm?fa=site&site_id=919"},
{"id":74,"title":"Hill Air Force Base","address":"7321 Balmer St, Building 570 Hill AFB, Utah 84056-5012","phone":"1-801-728-2600","img":"","icon":"","service_id":3,"latitude":41.106006,"longitude":-111.985156,"website":"http://www.hill.af.mil/75thmedicalgroup/index.asp","facebook":"https://www.facebook.com/75MDG","twitter":"https://twitter.com/USAFHealth","ice":"http://ice.disa.mil/index.cfm?fa=site&site_id=461"},
{"id":75,"title":"Hohenfels Army Health Clinic","address":"Building 51 Truppenuebungsplatz Hohenfels 92366","phone":"49-6371-9464-3300","img":"7CD9FC63-DFED-421C-8EB5D09BB937585Ctmp-28.png","icon":"B552AD34-8DDD-4173-BBAFF1E386A5DA29tmp-27.png","service_id":1,"latitude":49.22511,"longitude":11.830238,"website":"http://rhce.amedd.army.mil/hohenfels/index.cfm","facebook":"https://www.facebook.com/hohenfelshealthclinic","twitter":"","ice":"https://ice.disa.mil/index.cfm?fa=site&site_id=201"},
{"id":76,"title":"Holloman Air Force Base","address":"280 First St #15 Holloman AFB, New Mexico 88330-8273","phone":"1-575-572-2778","img":"","icon":"","service_id":3,"latitude":32.836534,"longitude":-106.073391,"website":"http://www.holloman.af.mil/units/49thmedicalgroup/index.asp","facebook":"https://www.facebook.com/49MedicalGroup?sk=wall","twitter":"https://twitter.com/USAFHealth","ice":"http://ice.disa.mil/index.cfm?fa=site&site_id=189"},
{"id":77,"title":"Hope Mills Medical Home","address":"3351 South Peak Drive, Ste. 100 Fayetteville, NC 28306","phone":"1-910-908-4673","img":"F9389393-8666-4913-9C8D89FB91ACE134tmp-260.png","icon":"145FE204-D6F8-4CE0-A2B4FBBA2A2E93B1tmp-259.png","service_id":1,"latitude":34.9795833,"longitude":-78.9771054,"website":"http://www.wamc.amedd.army.mil","facebook":"https://www.facebook.com/WomackAMC","twitter":"https://twitter.com/WomackAMC","ice":"http://ice.disa.mil/index.cfm?fa=service_provider_list&site_id=1082&dep=%2aDoD"},
{"id":78,"title":"Hugo V. Mendoza Soldier Family Care Center","address":"11335 Ssg Simms St Fort Bliss, TX 79918","phone":"1-915-742-2273","img":"E331FCE0-8DA4-4407-A20BB289644F784Atmp-113.png","icon":"08902898-6D9E-4027-B40B9E702C9328BAtmp-112.png","service_id":1,"latitude":31.830508,"longitude":-106.371087,"website":"https://www.wbamc.amedd.army.mil/PCMH/MendozaClinic/","facebook":"https://www.facebook.com/WBAMC1","twitter":"https://twitter.com/WBAMCArmyMed","ice":"http://ice.disa.mil/index.cfm?fa=site&site_id=435"},
{"id":79,"title":"Hurlburt Field","address":"113 Lielmanis Ave Hurlburt Field, Florida 32544-5600","phone":"1-850-883-8600","img":"","icon":"","service_id":1,"latitude":30.419134,"longitude":-86.680788,"website":"http://www.hurlburt.af.mil/AboutUs/FactSheets/FactSheets/tabid/4934/Article/204562/1st-special-operations-medical-group.aspx","facebook":"https://www.facebook.com/1SOMDG?ref=ts","twitter":"https://twitter.com/USAFHealth","ice":"http://ice.disa.mil/index.cfm?fa=site&site_id=462"},
{"id":80,"title":"Incirlik Air Base","address":"Unit 7095 APO, AE 09824-7095","phone":"94-314-676-3989","img":"","icon":"61AC97B1-3F57-4D7E-A6A1F19E34260749tmp-89.png","service_id":1,"latitude":37.0222,"longitude":35.42533,"website":"http://www.airforcemedicine.af.mil/MTF/Incirlik/","facebook":"https://www.facebook.com/AFMS-Incirlik-AB-39th-Medical-Group","twitter":"","ice":"http://ice.disa.mil/index.cfm?fa=site&site_id=464"},
{"id":81,"title":"Internal Medicine Army Medical Home","address":"Building 420, Fort Hood, TX 76544","phone":"1-254-288-8090","img":"24B45D64-DCFD-4737-A6DD3DDF989117D9tmp-262.png","icon":"FC2DBB2E-75D9-4ED5-819393834F795A5Dtmp-261.png","service_id":1,"latitude":31.12697,"longitude":-97.7729182,"website":"https://www.crdamc.amedd.army.mil/med-homes/","facebook":"https://www.facebook.com/CRDAMC/?ref=br_tf","twitter":"https://twitter.com/CRDAMC","ice":"http://ice.disa.mil/index.cfm?fa=service_provider_list&site_id=73&service_category_id=11"},
{"id":82,"title":"Ireland Army Health Clinic","address":"289 Ireland Ave Fort Knox, KY 40121-5520","phone":"1-502-624-9333","img":"4D41D1E3-A4AF-4AA4-95F884DCB2B8737Ftmp-264.png","icon":"EEBCE01C-215A-4DF9-8CE967757CC7D255tmp-263.png","service_id":1,"latitude":37.9002111,"longitude":-85.941403,"website":"http://www.iach.knox.amedd.army.mil/SitePages/Home.aspx","facebook":"https://www.facebook.com/IrelandACH/","twitter":"","ice":"http://ice.disa.mil/index.cfm?fa=service_provider_list&site_id=444&service_category_id=11"},
{"id":83,"title":"Irwin Army Community Hospital","address":"650 Huebner Rd Fort Riley, KS 66442","phone":"1-785-239-7613","img":"5CA57D5B-A6A7-47EB-8F786816A7438929tmp-49.png","icon":"17EAD87F-D144-4986-95C7ED732E01DF9Atmp-48.png","service_id":1,"latitude":39.083271,"longitude":-96.768549,"website":"http://iach.amedd.army.mil/","facebook":"https://www.facebook.com/IrwinArmyCommunityHospital/","twitter":"","ice":"http://ice.disa.mil/"},
{"id":84,"title":"James A. Lovell Federal Health Care Center","address":"3001 Green Bay Rd, Bldg. 133EF, North Chicago, IL 60064","phone":"1-224-610-3089","img":"LovellFederal.png","icon":"Lovell.png","service_id":2,"latitude":42.307379,"longitude":-87.860552,"website":"http://www.lovell.fhcc.va.gov/","facebook":"https://www.facebook.com/lovellfhcc","twitter":"https://twitter.com/lovellfhcc","ice":"http://ice.disa.mil/index.cfm?fa=associatesites&site_id=1181"},
{"id":85,"title":"Javier Villanueva Troop Medical Clinic","address":"B Ave and 8th St, Bldg 295 Fort Irwin, CA, 92310","phone":"1-760-380-6628","img":"D75A17EF-0C04-4D2D-AFAD311549A47940tmp-266.png","icon":"F7439D56-CD38-44C4-B7B4432D0A632674tmp-265.png","service_id":1,"latitude":35.2690573,"longitude":-116.683913,"website":"http://www.irwin.amedd.army.mil/pages/jvtmc.html","facebook":"","twitter":"","ice":"http://ice.disa.mil/index.cfm?fa=site&site_id=443"},
{"id":86,"title":"JBER - Soldier Centered Medical Home","address":"Bldg 786 D St Joint Base Elmendorf-Richardson, AK 99505","phone":"1-907-384-0600","img":"2D12F3A2-5596-49C3-9DB510B54C556068tmp-268.png","icon":"19F4AB32-A38F-465B-8AC228E8890C5CB0tmp-267.png","service_id":1,"latitude":61.259684,"longitude":149.685659,"website":"http://www.alaska.amedd.army.mil/PCMH/SCMH_JBER.htm","facebook":"","twitter":"","ice":"http://ice.disa.mil/index.cfm?fa=site&site_id=982"},
{"id":87,"title":"Joel Health Clinic","address":"Bldg M-4861 Logistics Ave Fort Bragg, NC 28310","phone":"1-910-907-5635","img":"CEE6D676-AB0F-446D-95A39581D6F7B25Etmp-270.png","icon":"D850C88A-810C-4F94-896AA415F41B9D69tmp-269.png","service_id":1,"latitude":35.1392778,"longitude":-78.9571887,"website":"http://www.wamc.amedd.army.mil","facebook":"https://www.facebook.com/WomackAMC","twitter":"https://twitter.com/WomackAMC","ice":"http://ice.disa.mil/index.cfm?fa=service_provider_list&site_id=1082&dep=%2aDoD"},
{"id":88,"title":"Joint Base Anacostia-Bolling","address":"238 Brookley Ave Building 1300 Joint Base Anacostia-Bolling, District of Columbia 20032","phone":"1-888-999-1212","img":"9CD4F081-203F-4309-A6C0C011E96F34DCtmp-145.png","icon":"AF070797-5095-40E8-81976D90A9326516tmp-144.png","service_id":1,"latitude":38.84555,"longitude":-77.009539,"website":"http://www.airforcemedicine.af.mil/MTF/Joint-Base-Anacostia-Bolling/","facebook":"https://www.facebook.com/579MDG","twitter":"https://twitter.com/USAFHealth","ice":"http://ice.disa.mil/index.cfm?fa=site&site_id=251"},
{"id":89,"title":"Joint Base Andrews","address":"Building 1050 West Perimeter Rd Joint Base Andrews NAF Washington, Maryland 20762","phone":"1-240-612-1155","img":"","icon":"","service_id":1,"latitude":38.807968,"longitude":-76.89639,"website":"","facebook":"https://www.facebook.com/779MDG.Resiliency","twitter":"https://twitter.com/USAFHealth","ice":"http://ice.disa.mil/index.cfm?fa=site&site_id=398&dep=DoD"},
{"id":90,"title":"Joint Base Charleston","address":"204 West Hill Boulevard Joint Base Charleston , South Carolina 29404-4704","phone":"1-843-963-6880","img":"48DA63A3-3934-44C1-8768EEC796EEF165tmp-79.png","icon":"F03C3075-3BED-42CA-9B3C184A60DF884Ftmp-78.png","service_id":1,"latitude":32.897034,"longitude":-80.058243,"website":"http://www.airforcemedicine.af.mil/MTF/Joint-Base-Charleston/","facebook":"https://www.facebook.com/628thMedicalGroup","twitter":"https://twitter.com/USAFHealth","ice":"http://ice.disa.mil/index.cfm?fa=site&site_id=417"},
{"id":91,"title":"Joint Base Elmendorf-Richardson","address":"5955 Zeamer Ave; JBER, AK; 99506-3700","phone":"1-907-580-6400","img":"09301772-B385-41CB-B41FB591ED51D281tmp-63.png","icon":"A07D0EAB-EBBA-4D5C-A7EECDED250344D5tmp-62.png","service_id":1,"latitude":61.2353,"longitude":-149.7446,"website":"http://www.jber.af.mil/","facebook":"https://www.facebook.com/JBERAK","twitter":"https://twitter.com/JBER_Official","ice":"http://ice.disa.mil/index.cfm?fa=site&site_id=982"},
{"id":92,"title":"Joint Base Langley-Eustis","address":"77 Nealy Ave Hampton, Virginia 23665-2080","phone":"1-757-225-7630","img":"","icon":"","service_id":1,"latitude":37.07045,"longitude":-76.360227,"website":"http://www.jble.af.mil/633dmedicalgrouphealthcare/index.asp","facebook":"https://www.facebook.com/USAFHospitalLangley","twitter":"https://twitter.com/USAFHealth","ice":"http://ice.disa.mil/index.cfm?fa=site&site_id=1031&dep=DoD"},
{"id":93,"title":"Joint Base McGuire-Dix-Lakehurst","address":"3458 Neely Rd JB MDL, New Jersey 08641","phone":"1-866-377-2778","img":"","icon":"","service_id":1,"latitude":40.03163,"longitude":-74.613305,"website":"http://www.jointbasemdl.af.mil/units/healthcareatjbmdl/index.asp","facebook":"https://www.facebook.com/87mdg/","twitter":"https://twitter.com/USAFHealth","ice":"http://ice.disa.mil/index.cfm?fa=site&site_id=1184"},
{"id":94,"title":"Joint Base San Antonio-Lackland - Wilford Hall","address":"2200 Bergquist Drive, Lackland AFB, Texas 78236-9908","phone":"1-210-292-7412","img":"06C0AD32-178F-4E29-815E0726E677051Atmp-107.png","icon":"3A574E17-F3D3-4EE1-9CEED8DD89781F14tmp-106.png","service_id":1,"latitude":29.398753,"longitude":-98.623873,"website":"http://www.59mdw.af.mil/","facebook":"https://www.facebook.com/59mdw/","twitter":"https://twitter.com/USAFHealth","ice":"http://ice.disa.mil"},
{"id":95,"title":"Kamish - Soldier Centered Medical Home","address":"3406 Alder Drive Fort Wainwright, AK 99703","phone":"1-907-353-1433","img":"B4F19BC4-6C7A-4C33-860916117AD73234tmp-272.png","icon":"946AA648-5751-437E-86700C4956B7A06Btmp-271.png","service_id":1,"latitude":64.821714,"longitude":147.629771,"website":"http://www.alaska.amedd.army.mil/PCMH/SCMH_Kamish.htm","facebook":"","twitter":"","ice":"http://ice.disa.mil/index.cfm?fa=site&site_id=360"},
{"id":96,"title":"Keesler Air Force Base","address":"301 Fisher St Keesler AFB, Mississippi 39534-2519","phone":"1-228-377-6550","img":"269B54EE-9BEE-4F32-85CF6A9FC612730Atmp-99.png","icon":"9B654F2E-CCD2-4B22-96FD1007148B8DDCtmp-98.png","service_id":3,"latitude":30.4118481,"longitude":-88.9133503,"website":"http://www.airforcemedicine.af.mil/MTF/Keesler/","facebook":"https://www.facebook.com/Keeslermedctr/","twitter":"https://twitter.com/Keeslermedctr","ice":"http://ice.disa.mil/index.cfm?fa=site&site_id=468"},
{"id":97,"title":"Keller Army Community Hospital","address":"900 Washington Rd West Point, NY 10966","phone":"1-845-938-5169","img":"5BD5B378-B6EC-4886-83899A0C9AA0380Ctmp-61.png","icon":"12B145E5-69A2-4916-917DF6C0CE00B7BAtmp-60.png","service_id":1,"latitude":41.4016883,"longitude":-73.9789473,"website":"http://kach.amedd.army.mil/SitePages/Home.aspx","facebook":"https://www.facebook.com/kellerarmycommunityhospital/","twitter":"","ice":"http://ice.disa.mil"},
{"id":98,"title":"Kenner Army Health Clinic","address":"700 24th St Fort Lee, VA 23801-1716","phone":"1-804-734-9000","img":"CA05F860-A60D-4E1B-89A9393A093F5229tmp-123.PNG","icon":"41470F57-CE3A-481D-97521C65632BF732tmp-122.png","service_id":1,"latitude":37.2382673,"longitude":-77.3492867,"website":"http://kenner.nrmc.amedd.army.mil/SitePages/Home.aspx","facebook":"https://www.facebook.com/kenner.ftlee","twitter":"","ice":"http://ice.disa.mil/index.cfm?fa=site&site_id=446"},
{"id":99,"title":"Killeen Medical Home","address":"3404 Kaydence Court Killeen, TX 76542","phone":"1-254-553-6001","img":"3B61CA3D-AA12-49CF-B1AEBEFBF541AC12tmp-215.png","icon":"C99C46EA-8198-4D5F-9F8D6BC89E93E81Ftmp-214.png","service_id":1,"latitude":31.131145,"longitude":-97.800261,"website":"https://www.crdamc.amedd.army.mil/med-homes/","facebook":"https://www.facebook.com/CRDAMC/?ref=br_tf","twitter":"https://twitter.com/CRDAMC","ice":"http://ice.disa.mil/index.cfm?fa=service_provider_list&site_id=73&service_category_id=11"},
{"id":100,"title":"Kimbrough Ambulatory Care Center","address":"2480 Llewellyn Ave Fort Meade, MD 20755","phone":"1-301-677-8800","img":"48DBBB1A-0102-4C5E-A02519D36004FF69tmp-171.png","icon":"C802A3FA-D689-4A4C-BD8F9CE55CEAAE50tmp-170.png","service_id":1,"latitude":76.729125,"longitude":39.098309,"website":"http://kacc.nrmc.amedd.army.mil/SitePages/Home.aspx","facebook":"https://www.facebook.com/KimbroughCARES/","twitter":"","ice":"http://ice.disa.mil/index.cfm?fa=card&sp=108822&s=349&dep=%2aDoD"},
{"id":101,"title":"Kirk Army Health Clinic","address":"2501 Oakington St Aberdeen Proving Ground, MD 21005","phone":"1-410-278-5475","img":"36D2E62E-F350-45C5-A29956E954AAFB03tmp-37.png","icon":"C20684D8-447A-48B0-AD04BE99B3C4DAA3tmp-36.png","service_id":1,"latitude":39.490104,"longitude":-76.13483,"website":"http://kusahc.nrmc.amedd.army.mil/SitePages/Home.aspx","facebook":"https://www.facebook.com/KUSAHC","twitter":"https://twitter.com/KUSAHC","ice":"http://ice.disa.mil/"},
{"id":102,"title":"Kleber Army Health Clinic","address":"3287 Daenner Strasse 67657 Kaiserslautern","phone":"49-6371-9464-5762","img":"9FE4328F-5BF3-4165-992D32454F03B47Ftmp-274.png","icon":"1F6F5DCC-0F27-4722-B4ACDE298E839C0Ctmp-273.png","service_id":1,"latitude":49.43977,"longitude":7.807905,"website":"http://rhce.amedd.army.mil/kleber/","facebook":"https://www.facebook.com/KleberHealthClinic/","twitter":"","ice":"http://ice.disa.mil/"},
{"id":103,"title":"Lackland Air Force Base - Reid Clinic","address":"1515 Truemper St, JBSA-Lackland AFB, Texas 78236","phone":"1-210-671-5535","img":"AA0ABA78-8725-4DDE-886C451569A3C221tmp-276.png","icon":"0D21CE3E-4C75-4AB8-9F50175CAB553A5Btmp-275.png","service_id":3,"latitude":29.384621,"longitude":-98.625764,"website":"http://www.59mdw.af.mil/","facebook":"https://www.facebook.com/59mdw/","twitter":"https://twitter.com/USAFHealth","ice":"http://ice.disa.mil"},
{"id":104,"title":"Landstuhl Regional Medical Center","address":"Geb 3377, 66849 Landstuhl, Germany","phone":"49-6371-9464-5762","img":"A209C971-C73C-4C69-B726B7EFF1105F84tmp-169.PNG","icon":"62FE9363-2CA6-4D5F-B8AF096AB1B4BA31tmp-168.png","service_id":1,"latitude":49.404204,"longitude":7.55976,"website":"http://rhce.amedd.army.mil/landstuhl/index.cfm","facebook":"https://www.facebook.com/LRMCofficialpage/","twitter":"","ice":"http://ice.disa.mil/index.cfm?fa=site&site_id=626"},
{"id":105,"title":"LaPointe Army Medical Home","address":"5979 Desert Storm Ave Fort Campbell, TN 42223","phone":"1-270-431-4677","img":"A712523E-96D8-4B60-830A7F85EB0C1462tmp-109.png","icon":"4556E940-B7AC-402A-9F7F68EDFCC8575Etmp-108.png","service_id":1,"latitude":36.6447855,"longitude":-87.4686071,"website":"http://blanchfield.amedd.army.mil","facebook":"https://www.facebook.com/BACH.Fort.Campbell/","twitter":"https://twitter.com/BACH_Healthcare","ice":"http://ice.disa.mil/index.cfm?fa=card&site_id=339&service_provider_id=89939"},
{"id":106,"title":"Laughlin Air Force Base","address":"590 Mitchell Boulevard, Building 375 Laughlin AFB, Texas 78843-5242","phone":"1-830-298-6333","img":"","icon":"","service_id":3,"latitude":29.35699,"longitude":-100.788498,"website":"","facebook":"https://www.facebook.com/47thMedicalGroup","twitter":"https://twitter.com/USAFHealth","ice":"http://ice.disa.mil/index.cfm?fa=site&site_id=303"},
{"id":107,"title":"Linden Oaks Medical Home","address":"55 Centennial Parkway Cameron, NC 28326","phone":"1-910-908-6257","img":"8EF51F17-33F5-4C72-9E5EA839D8983B8Btmp-39.png","icon":"AC4ECDA6-BC86-49A6-8CABEE89C075340Btmp-38.png","service_id":1,"latitude":35.2543056,"longitude":-79.0325776,"website":"http://www.wamc.amedd.army.mil","facebook":"https://www.facebook.com/WomackAMC","twitter":"https://twitter.com/WomackAMC","ice":"http://ice.disa.mil/index.cfm?fa=service_provider_list&site_id=1082&dep=%2aDoD"},
{"id":108,"title":"Little Rock Air Force Base","address":"1090 Arnold Drive Little Rock AFB, Arkansas 72099-4933","phone":"1-501-987-1285","img":"","icon":"","service_id":3,"latitude":34.896958,"longitude":-92.16495,"website":"","facebook":"https://www.facebook.com/19MDG?ref=ts","twitter":"https://twitter.com/USAFHealth","ice":"http://ice.disa.mil/index.cfm?fa=site&site_id=481"},
{"id":109,"title":"Los Angeles Air Force Base","address":"Building 210 483 North Aviation Boulevard El Segundo, California 90245-4661","phone":"1-310-653-2873","img":"","icon":"","service_id":3,"latitude":33.917677,"longitude":-118.38196,"website":"http://www.losangeles.af.mil/newclinicpage.asp","facebook":"https://www.facebook.com/61MDS","twitter":"https://twitter.com/USAFHealth","ice":"http://ice.disa.mil/index.cfm?fa=site&site_id=387"},
{"id":110,"title":"Luke Air Force Base","address":"7219 North Litchfield Rd Building 1130 Luke AFB, Arizona 85309-1526","phone":"1-623-856-2273","img":"","icon":"","service_id":3,"latitude":33.541418,"longitude":-112.357782,"website":"http://www.luke.af.mil/Groups/56thMedicalGroup.aspx","facebook":"https://www.facebook.com/pages/AFMS-Luke-56th-Medical-Group/221285301232628","twitter":"https://twitter.com/USAFHealth","ice":"http://ice.disa.mil/index.cfm?fa=site&site_id=483"},
{"id":111,"title":"Lyster Army Health Clinic","address":"Bldg 301 Andrews Ave Fort Rucker, AL 36362","phone":"1-800-261-7193","img":"90583CCD-701A-47AD-B9725C8BF9CE0318tmp-278.png","icon":"8A2E4476-2A00-40D4-AD2317A456BA06FCtmp-277.png","service_id":1,"latitude":31.3271868,"longitude":-85.7261574,"website":"http://lyster.amedd.army.mil","facebook":"https://www.facebook.com/LysterArmyHealthClinic","twitter":"https://twitter.com/LysterAHC","ice":"http://ice.disa.mil/index.cfm?fa=site&site_id=72"},
{"id":112,"title":"MacDill Air Force Base","address":"3250 Zemke Ave MacDill AFB, Florida 33621-1607","phone":"1-813-828-2273","img":"","icon":"","service_id":3,"latitude":27.860158,"longitude":-82.501172,"website":"http://www.macdill.af.mil/units/6thmedicalgroup/","facebook":"https://www.facebook.com/macdillmedics","twitter":"https://twitter.com/USAFHealth","ice":"http://ice.disa.mil/index.cfm?fa=site&site_id=484"},
{"id":113,"title":"Madigan Army Medical Center","address":"9040 Jackson Ave Tacoma, WA 98431","phone":"1-253-968-1110","img":"MAMC_PPCMH.png","icon":"DCE691F2-38D6-410E-9646A9E4AD559C82tmp-180.png","service_id":1,"latitude":47.109669,"longitude":-122.551879,"website":"http://www.mamc.amedd.army.mil","facebook":"","twitter":"","ice":"http://ice.disa.mil/index.cfm?fa=service_provider_list&site_id=957&service_category_id=11"},
{"id":114,"title":"Malmstrom Air Force Base","address":"7300 N. Perimeter Rd Malmstrom AFB, Montana 59402-6780","phone":"1-406-731-4633","img":"","icon":"","service_id":3,"latitude":47.516109,"longitude":-111.195766,"website":"http://www.malmstrom.af.mil/units/medicalgroup/index.asp","facebook":"https://www.facebook.com/341stMedicalGroup?ref=ts","twitter":"https://twitter.com/USAFHealth","ice":"http://ice.disa.mil/index.cfm?fa=site&site_id=388"},
{"id":115,"title":"Martin Army Community Hospital","address":"6600 Van Aalst Boulevard Fort Benning, GA 31905","phone":"1-762-408-2604","img":"73687309-27DE-40FD-BAEE8CBDD664E835tmp-189.png","icon":"AD98DC1C-CE24-4E25-B2A26002E2D68292tmp-188.png","service_id":1,"latitude":32.3772841,"longitude":-84.9361469,"website":"http://www.martin.amedd.army.mil/","facebook":"https://www.facebook.com/Martin-Army-Community-Hospital-106090889433774/","twitter":"","ice":"http://ice.disa.mil/index.cfm?fa=site&site_id=839"},
{"id":116,"title":"Maxwell Air Force Base","address":"300 South Twining St Building 760 Maxwell AFB, Alabama 36112-6219","phone":"1-334-953-3368","img":"","icon":"","service_id":3,"latitude":32.375818,"longitude":-86.345641,"website":"http://www.maxwell.af.mil/units/42ndmedicalgroup/index.asp","facebook":"https://www.facebook.com/42MDG","twitter":"https://twitter.com/USAFHealth","ice":"http://ice.disa.mil/index.cfm?fa=site&site_id=486"},
{"id":117,"title":"McAfee Army Health Clinic","address":"1363 Aberdeen Ave White Sands Missile Range, NM 88002","phone":"1-575-674-3600","img":"EC274A24-1F1E-40FD-A2D517F647628914tmp-59.png","icon":"D0DF8859-2EB9-4625-ADBFAA93EB09CDFDtmp-58.png","service_id":1,"latitude":32.378999,"longitude":-106.489097,"website":"https://www.wbamc.amedd.army.mil/PCMH/McAfee/","facebook":"https://www.facebook.com/WBAMC1","twitter":"https://twitter.com/WBAMCArmyMed","ice":"http://ice.disa.mil/index.cfm?fa=site&site_id=435"},
{"id":118,"title":"McChord Medical Clinic","address":"690 Barnes Boulevard Joint Base Lewis-Mcchord, WA 98438","phone":"1-253-982-5601","img":"515FB51E-45E5-4EE1-BEBB452BBFE508BAtmp-280.png","icon":"83455F24-B651-4389-83A61FB6A4CCDFB6tmp-279.png","service_id":1,"latitude":47.130016,"longitude":-122.494072,"website":"http://www.mamc.amedd.army.mil/locations/mcchord-clinic.aspx","facebook":"","twitter":"","ice":"http://ice.disa.mil/index.cfm?fa=service_provider_list&site_id=957&service_category_id=11"},
{"id":119,"title":"McConnell Air Force Base","address":"57950 Leavenworth St Building 250 McConnell AFB, Kansas 67221-3506","phone":"1-316-759-6300","img":"","icon":"","service_id":3,"latitude":37.63162,"longitude":-97.250002,"website":"","facebook":"https://www.facebook.com/22MDG","twitter":"https://twitter.com/USAFHealth","ice":"http://ice.disa.mil/index.cfm?fa=site&site_id=490"},
{"id":120,"title":"McDonald Army Health Center","address":"576 Jefferson Ave Fort Eustis, VA 23604","phone":"1-757-314-7500","img":"7E6C6909-94FD-4622-902287754CD0DD12tmp-129.png","icon":"6F6B237D-79F8-496D-A3757ED88125B30Dtmp-128.png","service_id":1,"latitude":37.1618685,"longitude":-76.5755438,"website":"http://mcdonald.narmc.amedd.army.mil/SitePages/Home.aspx","facebook":"https://www.facebook.com/McDonaldAHC/","twitter":"","ice":"http://ice.disa.mil/index.cfm?fa=service_provider_list&site_id=439&service_c"},
{"id":121,"title":"McNair Army Health Clinic","address":"114 1st Ave Washington, D.C. 20319","phone":"1-202-685-3100","img":"B3AEEAA2-6513-419D-AF0D8218334E2A80tmp-282.png","icon":"D01C0EEA-7B79-40E7-BB2C9A274DCF1612tmp-281.png","service_id":1,"latitude":38.870694,"longitude":-77.018528,"website":"http://rader.nrmc.amedd.army.mil/HealthcareServices/SitePages/Ft.%20McNair.aspx","facebook":"","twitter":"","ice":"http://ice.disa.mil/index.cfm?fa=site&site_id=356"},
{"id":122,"title":"McWethy Troop Medical Clinic","address":"4575 Stuart St Fort Jackson, SC 29207","phone":"1-803-751-6789","img":"","icon":"","service_id":1,"latitude":29.4561,"longitude":-98.44,"website":"http://www.moncrief.amedd.army.mil/HealthcareServices/SitePages/McWethy%20Troop%20Medical%20Clinic.aspx","facebook":"","twitter":"","ice":"http://ice.disa.mil/index.cfm?fa=service_provider_list&service_category_id=11&site_id=147&dep=DoD"},
{"id":123,"title":"McWethy Troop Medical Clinic","address":"3051 Garden Ave, Bldg 1279 Fort Sam Houston, TX 78234","phone":"1-210-916-3000","img":"","icon":"","service_id":1,"latitude":29.456079,"longitude":-98.4400205,"website":"https://www.bamc.amedd.army.mil/departments/family-medicine/tmc.asp","facebook":"https://www.facebook.com/BrookeArmyMedicalCenter","twitter":"https://twitter.com/BrookeArmyMed","ice":"http://ice.disa.mil/index.cfm?fa=service_provider_list&site_id=934"},
{"id":124,"title":"Minot Air Force Base","address":"194 Missile Ave Minot AFB, North Dakota 58705-5024","phone":"1-701-723-5633","img":"","icon":"","service_id":3,"latitude":48.418498,"longitude":-101.31076,"website":"http://www.minot.af.mil/5thmedicalgroup/","facebook":"https://www.facebook.com/5thMedicalGroup","twitter":"https://twitter.com/USAFHealth","ice":"http://ice.disa.mil/index.cfm?fa=site&site_id=206"},
{"id":125,"title":"Moncrief Army Health Clinic","address":"4500 Stuart St Fort Jackson, SC 29207","phone":"1-803-751-2160","img":"BF82BD05-A933-403F-87A91A3C9198A391tmp-151.png","icon":"77870ACE-29CB-4B8C-85F5B8680478498Dtmp-150.png","service_id":1,"latitude":34.012,"longitude":-80.9377,"website":"http://moncrief.amedd.army.mil/SitePages/Home.aspx","facebook":"","twitter":"","ice":"http://ice.disa.mil/index.cfm?fa=service_provider_list&service_category_id=11&site_id=147&dep=DoD"},
{"id":126,"title":"Moncrief Medical Home","address":"1021 Pinnacle Point Drive Columbia, SC 29223","phone":"1-803-562-2107","img":"70C642A1-36A3-4E4C-9CE7EB3340B26B5Dtmp-184.png","icon":"D360EFDA-B105-49C0-B4916E09CE40A806tmp-183.png","service_id":1,"latitude":34.1002,"longitude":-80.9539,"website":"http://www.moncrief.amedd.army.mil/HealthcareServices/SitePages/Moncrief%20Medical%20Home.aspx","facebook":"","twitter":"","ice":"http://ice.disa.mil/index.cfm?fa=service_provider_list&service_category_id=11&site_id=147&dep=DoD"},
{"id":127,"title":"Monroe Health Clinic","address":"Bldg 33003 Battalion Ave Fort Hood, TX 76544","phone":"1-254-618-8782","img":"E4452171-C367-49E0-B2BB3A34529A7E16tmp-24.png","icon":"D395A779-5A41-4DD1-80AED827FEE9995Ftmp-23.png","service_id":1,"latitude":31.140495,"longitude":-97.769969,"website":"https://www.crdamc.amedd.army.mil/monroe/","facebook":"https://www.facebook.com/CRDAMC/?ref=br_tf","twitter":"https://twitter.com/CRDAMC","ice":"http://ice.disa.mil/index.cfm?fa=service_provider_list&site_id=73&service_category_id=11"},
{"id":128,"title":"Moody Air Force Base","address":"3278 Mitchell Boulevard Moody AFB, Georgia 31699-1500","phone":"1-229-257-2778","img":"","icon":"","service_id":3,"latitude":30.976818,"longitude":-83.207221,"website":"","facebook":"https://www.facebook.com/23MDG","twitter":"https://twitter.com/USAFHealth","ice":"http://ice.disa.mil/index.cfm?fa=site&site_id=193"},
{"id":129,"title":"Mosier Troop Medical and Dental Clinic","address":"18020 Edgewood Rd, Fort Lee, VA 23801","phone":"1-804-734-5448","img":"38702E97-F1A3-4CB5-8CFA6186929C8F9Etmp-86.png","icon":"CE836FD3-F9E5-44F4-9D793542F335409Etmp-85.png","service_id":1,"latitude":37.2562782,"longitude":-77.3471223,"website":"http://kenner.nrmc.amedd.army.mil/SitePages/Home.aspx","facebook":"https://www.facebook.com/kenner.ftlee","twitter":"","ice":"http://ice.disa.mil/index.cfm?fa=site&site_id=446"},
{"id":130,"title":"Mountain Home Air Force Base","address":"90 Hope Drive Building 6000 Mountain Home AFB, Idaho 83648-1000","phone":"1-208-828-7900","img":"A8B03CE3-FE45-4C79-BA06F0357A0A689Ctmp-165.png","icon":"85FD5D51-EC3B-48B9-91DF2FC7E906E586tmp-164.png","service_id":3,"latitude":43.065168,"longitude":-115.850283,"website":"http://www.mountainhome.af.mil/library/medicalinformation/index.asp","facebook":"https://www.facebook.com/366.MDG","twitter":"https://twitter.com/USAFHealth","ice":"http://ice.disa.mil/index.cfm?fa=site&site_id=205"},
{"id":131,"title":"Mountain Post Medical Home","address":"565 Space Center Drive Colorado Springs, CO 80915","phone":"1-719-524-0200","img":"0FA37802-B41F-44B8-A1C7BECA3F4DC59Btmp-141.PNG","icon":"9081193E-F0D9-44C7-8C40ED95A09C81F8tmp-140.png","service_id":1,"latitude":38.84009,"longitude":-104.7266,"website":"http://www.evans.amedd.army.mil/MPMH/mpmh.html","facebook":"","twitter":"","ice":"http://ice.disa.mil/index.cfm?fa=site&site_id=924"},
{"id":132,"title":"Munson Army Health Center","address":"550 Pope Ave Fort Leavenworth, KS 66027","phone":"1-913-684-6000","img":"A47F2151-BA3C-4910-900EEE22399966A3tmp-74.png","icon":"89B7EDC5-1F0E-403E-A4F7BD45953D4B21tmp-35.png","service_id":1,"latitude":39.353908,"longitude":-94.925362,"website":"https://www.munson.amedd.army.mil/","facebook":"https://www.facebook.com/munsonhealth/","twitter":"https://twitter.com/munsonhealth","ice":"http://ice.disa.mil/index.cfm?fa=service_provider_list&site_id=445&service_category_id=11"},
{"id":133,"title":"Naval Health Clinic Annapolis","address":"250 Wood Rd, Annapolis, MD 21402","phone":"1-410-293-2273","img":"Naval_Health_Clinic_Annapolis.jpg","icon":"Ebmannapolis.png","service_id":2,"latitude":38.9890482,"longitude":-76.4913011,"website":"http://www.med.navy.mil/sites/annapolis","facebook":"https://www.facebook.com/NavalHealthClinicAnnapolis","twitter":"https://twitter.com/nhcannapolis","ice":"http://ice.disa.mil/index.cfm?fa=site&site_id=283&dep=DoD"},
{"id":134,"title":"Naval Health Clinic Charleston","address":"110 NNPTC Circle, Goose Creek, SC 29445","phone":"1-843-794-6000","img":"Charleston.png","icon":"EmbNHCharleston.png","service_id":2,"latitude":32.9653604,"longitude":-79.9629046,"website":"http://www.med.navy.mil/sites/chas/Pages/default.aspx","facebook":"https://www.facebook.com/Navalhealthcliniccharleston2010","twitter":"https://twitter.com/nhccharleston","ice":"http://ice.disa.mil/index.cfm?fa=site&site_id=372&dep=DoD"},
{"id":135,"title":"Naval Health Clinic Cherry Point","address":"PSC Box 8023, Bldg 4389, Cherry Point, NC 28533","phone":"1-252-466-0266","img":"CherryPoint.png","icon":"EmbNHCherryPoint.png","service_id":2,"latitude":34.8961383,"longitude":-76.9090853,"website":"http://www.med.navy.mil/sites/cpoint/Pages/default.aspx","facebook":"https://www.facebook.com/pages/Naval-Health-Clinic-Cherry-Point/175324484418","twitter":"","ice":"http://ice.disa.mil/index.cfm?fa=card&site_id=419&service_provider_id=101124"},
{"id":136,"title":"Naval Health Clinic Corpus Christi","address":"10651 E St, Corpus Christi, TX 78419","phone":"1-361-961-6121","img":"CorpusChristi.png","icon":"EMBCorpusChristi.png","service_id":2,"latitude":27.6905277,"longitude":-97.266645,"website":"http://www.med.navy.mil/sites/nhccc","facebook":"https://www.facebook.com/NHCCC/","twitter":"","ice":"http://ice.disa.mil/index.cfm?fa=site&site_id=1122&dep=DoD"},
{"id":137,"title":"Naval Health Clinic Hawaii","address":"480 Central Ave, Pearl Harbor, HI 96860","phone":"1-808-473-0247","img":"Naval_Health_Clinic_Hawaii.jpg","icon":"Naval_Health_Clinic_Hawaii-Logo.png","service_id":2,"latitude":21.348033,"longitude":-157.957597,"website":"http://www.med.navy.mil/sites/nhch/Pages/default.aspx","facebook":"https://www.facebook.com/pages/Naval-Health-Clinic-Hawaii/167982416574687","twitter":"","ice":"http://ice.disa.mil/index.cfm?fa=site&site_id=1299"},
{"id":138,"title":"Naval Health Clinic New England","address":"43 Smith Rd, Newport, RI 02840","phone":"1-401-841-3772","img":"9B4200FF-9E1A-420C-80AB7BF615273A02tmp-300.png","icon":"EmbNHCNewEnglandRI.png","service_id":2,"latitude":41.5039187,"longitude":-71.3218366,"website":"http://nhcne.med.navy.mil/","facebook":"https://www.facebook.com/NHCNE","twitter":"","ice":"http://ice.disa.mil/index.cfm?fa=site&site_id=1170&dep=DoD"},
{"id":139,"title":"Naval Health Clinic Patuxent River","address":"47149 Buse Rd, Bldg 1370, Patuxent River, MD 20670","phone":"1-301-995-4980","img":"PAX_Clinic.jpg","icon":"EmbNHCPatexentRiveMEmbD.png","service_id":2,"latitude":38.2720187,"longitude":-76.4455987,"website":"http://www.med.navy.mil/sites/paxriver","facebook":"https://www.facebook.com/NHCPaxRiver/","twitter":"https://twitter.com/naspaxriverpao","ice":"http://ice.disa.mil/index.cfm?fa=service_provider_list&site_id=505&service_category_id=11&dep=*DoD"},
{"id":140,"title":"Naval Health Clinic Quantico","address":"3259 Catlin Ave, Quantico, VA 22134","phone":"1-703-784-1725","img":"Quantico-Health-Clinic.jpg","icon":"EmbQuantico.png","service_id":2,"latitude":38.513976,"longitude":-77.311937,"website":"http://www.med.navy.mil/sites/nhcq","facebook":"https://www.facebook.com/NavalHealthClinicQuantico","twitter":"https://twitter.com/NHCQuantico","ice":"http://ice.disa.mil/index.cfm?fa=site&site_id=1173&dep=DoD"},
{"id":141,"title":"Naval Hospital Beaufort","address":"1 Pinckney Blvd, Beaufort, SC 29902","phone":"1-843-228-5337","img":"Beaufort.png","icon":"EmbNHBeaufort.png","service_id":2,"latitude":32.3903987,"longitude":-80.6822205,"website":"http://www.med.navy.mil/sites/nhbeaufort/Pages/Welcome_Page.aspx","facebook":"https://www.facebook.com/navalhospitalbeaufort?sk=timeline","twitter":"https://twitter.com/nhb1949","ice":"http://ice.disa.mil/index.cfm?fa=site&site_id=350&dep=DoD"},
{"id":142,"title":"Naval Hospital Bremerton","address":"1 Boone Rd, Bremerton, WA 98312","phone":"1-360-475-4232","img":"Naval_Hospital_Bremerton.jpg","icon":"Naval_Hospital_Bremerton-Logo.png","service_id":2,"latitude":47.594939,"longitude":-122.691525,"website":"http://www.med.navy.mil/SITES/NHBREM/Pages/default.aspx","facebook":"https://www.facebook.com/pages/Naval-Hospital-Bremerton/163929576969000","twitter":"https://twitter.com/MyNHB","ice":"http://ice.disa.mil/index.cfm?fa=site&site_id=380&dep=DoD"},
{"id":143,"title":"Naval Hospital Camp LeJeune","address":"100 Brewster Blvd, Camp Lejeune, NC 28547","phone":"1-910-450-4300","img":"LejeuneHospital.png","icon":"EmbNHCampLejeune.png","service_id":2,"latitude":34.72295,"longitude":-77.358437,"website":"http://www.med.navy.mil/sites/nhcl/Pages/default.aspx","facebook":"https://www.facebook.com/NHCLejeune","twitter":"https://twitter.com/NHCLejeune","ice":"http://ice.disa.mil/index.cfm?fa=site&site_id=1163&dep=%2aDoD"},
{"id":144,"title":"Naval Hospital Camp Pendleton","address":"200 Mercy Circle, Camp Pendleton, CA 92055","phone":"1-760-725-1288","img":"Naval_Hospital_Camp_Pendleton.jpg","icon":"Naval_Hospital_Camp_Pendleton-Logo.png","service_id":2,"latitude":33.220387,"longitude":-117.389374,"website":"http://www.med.navy.mil/sites/cpen/newSite/Pages/default.aspx","facebook":"https://www.facebook.com/NavalHospitalCampPendleton","twitter":"","ice":"http://ice.disa.mil/"},
{"id":145,"title":"Naval Hospital Jacksonville","address":"2080 Child St, Jacksonville, FL 32214","phone":"1-904-542-7300","img":"Jacksonville.png","icon":"EmbNHJacksonvilleFL.png","service_id":2,"latitude":30.209169,"longitude":-81.686073,"website":"http://www.med.navy.mil/SITES/NAVALHOSPITALJAX","facebook":"https://www.facebook.com/NavalHospitalJacksonville","twitter":"https://twitter.com/NHJAX","ice":"http://ice.disa.mil/index.cfm?fa=site&site_id=766"},
{"id":146,"title":"Naval Hospital Lemoore","address":"937 Franklin Ave, Lemoore, CA 93246","phone":"1-559-998-4481","img":"Naval_Hospital_Lemoore.jpg","icon":"Naval_Hospital_Lemoore-Logo.png","service_id":2,"latitude":36.263199,"longitude":-119.887597,"website":"http://www.med.navy.mil/sites/nhlem/Pages/index.aspx","facebook":"https://www.facebook.com/NavalHospitalLemoore","twitter":"https://twitter.com/NHLemoore","ice":"http://ice.disa.mil/index.cfm?fa=service_provider_list&site_id=479"},
{"id":147,"title":"Naval Hospital Oak Harbor","address":"3475 N Saratoga St, Oak Harbor, WA 98277","phone":"1-360-257-9500","img":"Naval_Hospital_Oak_Harbor.jpg","icon":"Naval_Hospital_Oak_Harbor-Logo.png","service_id":2,"latitude":48.33651,"longitude":-122.680179,"website":"http://www.med.navy.mil/sites/nhoh/Pages/Default.aspx","facebook":"https://www.facebook.com/pages/Naval-Hospital-Oak-Harbor/164574516897309","twitter":"https://twitter.com/NHJAX","ice":"http://ice.disa.mil/index.cfm?fa=service_provider_list&site_id=587&service_category_id=11&dep=*DoD"},
{"id":148,"title":"Naval Hospital Pensacola","address":"6000 West Highway 98, Pensacola, FL 32512","phone":"1-850-505-6601","img":"Pensacola.png","icon":"EMBPensacola.png","service_id":2,"latitude":30.4065538,"longitude":-87.2891999,"website":"http://www.med.navy.mil/sites/pcola","facebook":"https://www.facebook.com/pages/Naval-Hospital-Pensacola/125746744135570","twitter":"https://twitter.com/NHJAX","ice":"http://ice.disa.mil/index.cfm?fa=site&site_id=778&dep=DoD"},
{"id":149,"title":"Naval Hospital Twentynine Palms","address":"1145 Sturgis Rd, Twentynine Palms, CA 92278","phone":"1-760-830-2190","img":"Naval_Hospital_Twentynine_Palms.jpg","icon":"Naval_Hospital_Twentynine_Palms-Logo.png","service_id":2,"latitude":34.225264,"longitude":-116.04874,"website":"http://www.med.navy.mil/sites/nmw/Commands/Pages/NH%20Twentynine%20Palms.aspx","facebook":"https://www.facebook.com/business/dashboard/#/pages/Twentynine-Palms-CA/Naval-Hospital-Twentynine-Palms/83701100741","twitter":"https://twitter.com/NH29Palms","ice":"http://ice.disa.mil/"},
{"id":150,"title":"Naval Medical Center Portsmouth","address":"620 John Paul Jones Circle, Portsmouth, VA 23708","phone":"1-757-953-5008","img":"NMCP.png","icon":"EmbNMCPortsmouthVA.png","service_id":2,"latitude":36.844072,"longitude":-76.304804,"website":"http://www.med.navy.mil/sites/nmcp2","facebook":"https://www.facebook.com/NMCPortsmouth","twitter":"https://twitter.com/NMCP1","ice":"http://ice.disa.mil/index.cfm?fa=site&site_id=313"},
{"id":151,"title":"Naval Medical Center San Diego","address":"34800 Bob Wilson Drive, San Diego, CA 92134","phone":"1-619-532-6400","img":"Naval_Medical_Center_San_Diego.jpg","icon":"Naval_Medical_Center_San_Diego-Logo.png","service_id":2,"latitude":32.724542,"longitude":-117.144645,"website":"http://www.med.navy.mil/sites/nmcsd/Pages/default.aspx","facebook":"https://www.facebook.com/NMCSD","twitter":"https://twitter.com/NMC_SD","ice":"http://ice.disa.mil/index.cfm?fa=site&site_id=1223&dep=DoD"},
{"id":152,"title":"Nellis Air Force Base","address":"4700 North Las Vegas Boulevard Nellis AFB, Nevada 89191-6601","phone":"1-702-653-2273","img":"","icon":"","service_id":3,"latitude":36.245749,"longitude":-115.048885,"website":"http://www.nellis.af.mil/units/nellismedicalcenter/index.asp","facebook":"https://www.facebook.com/NellisHospital","twitter":"https://twitter.com/USAFHealth","ice":"http://ice.disa.mil/index.cfm?fa=site&site_id=364"},
{"id":153,"title":"North Central Federal Clinic","address":"17440 Henderson Pass San Antonio, Texas 78232","phone":"1-210-483-2950","img":"6C17FAE8-C4FC-44E3-B44B34C33B06DE68tmp-200.png","icon":"DAACD84C-37EF-4D6F-B8A2463D71ABB564tmp-199.png","service_id":1,"latitude":29.603803,"longitude":-98.461017,"website":"http://www.59mdw.af.mil/","facebook":"https://www.facebook.com/59mdw/","twitter":"https://twitter.com/USAFHealth","ice":"http://ice.disa.mil"},
{"id":154,"title":"North Columbus Medical Home","address":"1100 Brookstone Centre Parkway Columbus, GA 31904","phone":"1-706-322-2223","img":"B13A797A-075F-48F3-BADD200D1C9DD58Btmp-177.png","icon":"7146689B-9328-4E34-863E6433F1CD34EDtmp-176.png","service_id":1,"latitude":32.460556,"longitude":-84.987778,"website":"http://www.martin.amedd.army.mil/","facebook":"https://www.facebook.com/Martin-Army-Community-Hospital-106090889433774/","twitter":"","ice":"http://ice.disa.mil/index.cfm?fa=site&site_id=839"},
{"id":155,"title":"North Troop Medical Clinic","address":"8435 Vanguard Rd Fort Stewart, GA 31314","phone":"1-912-435-7463","img":"8055BEB8-C63D-4853-85C03FD4C9B2A274tmp-88.png","icon":"A0DD4A82-74B7-48AB-802390955F1AAEE1tmp-87.png","service_id":1,"latitude":31.910594,"longitude":-81.609567,"website":"http://winn.amedd.army.mil/HealthcareServices/SitePages/North%20TMC.aspx","facebook":"https://www.facebook.com/winncares","twitter":"https://twitter.com/winn_ach","ice":"http://ice.disa.mil/index.cfm?fa=site&site_id=919"},
{"id":156,"title":"Novosel Aviation Health Clinic","address":"814 Marchal Drive Fort Riley, KS 66442","phone":"1-785-240-1125","img":"4461B1E5-D288-467B-8B1B8ED19162D629tmp-131.png","icon":"4AEDB341-E117-4A4C-ABB5143F6A0821A2tmp-130.png","service_id":1,"latitude":39.047099,"longitude":-96.764258,"website":"http://iach.amedd.army.mil/","facebook":"https://www.facebook.com/IrwinArmyCommunityHospital/","twitter":"","ice":"http://ice.disa.mil/"},
{"id":157,"title":"Offutt Air Force Base","address":"2501 Capehart Rd Offutt AFB, Nebraska 68113-2160","phone":"1-402-232-2273","img":"","icon":"","service_id":3,"latitude":41.11772,"longitude":-95.949637,"website":"http://www.offutt.af.mil/units/55thmedicalgroup.asp","facebook":"https://www.facebook.com/55mdg","twitter":"https://twitter.com/USAFHealth","ice":"http://ice.disa.mil/index.cfm?fa=site&site_id=187"},
{"id":158,"title":"Okubo Soldier-Centered Medical Home","address":"11582 C St Joint Base Lewis-McChord, WA 98433","phone":"1-253-966-1991","img":"0B00D0FA-FBB0-4210-A1DD7A605B0F5C55tmp-187.png","icon":"7C4DF3DB-7E3F-490F-B5899F2F27F3E97Dtmp-186.png","service_id":1,"latitude":47.127411,"longitude":-122.601816,"website":"http://www.mamc.amedd.army.mil/locations/okubo-clinic.aspx","facebook":"","twitter":"","ice":"http://ice.disa.mil/index.cfm?fa=service_provider_list&site_id=957&service_category_id=11"},
{"id":159,"title":"Ozark Family-Centered Medical Home","address":"194 East Lawn Ave St Robert, MO 65584","phone":"1-573-596-0064","img":"EC9045AD-ACA7-4323-9E70FEEE20DB4622tmp-119.png","icon":"2685171F-815C-44EC-81975B86A8D8D71Atmp-118.png","service_id":1,"latitude":37.814203,"longitude":-92.137987,"website":"http://glwach.amedd.army.mil","facebook":"https://www.facebook.com/GLWACH","twitter":"https://twitter.com/glwachonflw","ice":"http://ice.disa.mil/"},
{"id":160,"title":"Patrick Air Force Base","address":"1381 S. Patrick Drive Patrick AFB, Florida 32925","phone":"1-321-494-8241","img":"","icon":"","service_id":3,"latitude":28.216648,"longitude":-80.60515,"website":"","facebook":"https://www.facebook.com/45thMedicalGroup","twitter":"https://twitter.com/USAFHealth","ice":"http://ice.disa.mil/index.cfm?fa=site&site_id=383"},
{"id":161,"title":"Pediatric Army Medical Home","address":"Building 420, Fort Hood, TX 76544","phone":"1-254-553-3745","img":"7EEC0D6D-23EA-4F83-B02DC3150C238CB0tmp-101.png","icon":"5E00F2B1-1AF9-475A-A983208EF18CA886tmp-100.png","service_id":1,"latitude":31.12697,"longitude":-97.7729182,"website":"https://www.crdamc.amedd.army.mil/med-homes/","facebook":"https://www.facebook.com/CRDAMC/?ref=br_tf","twitter":"https://twitter.com/CRDAMC","ice":"http://ice.disa.mil/index.cfm?fa=service_provider_list&site_id=73&service_category_id=11"},
{"id":162,"title":"Peterson Air Force Base","address":"559 Vincent St, Building 959 Peterson AFB, Colorado 80914-1540","phone":"1-719-524-2273","img":"","icon":"","service_id":3,"latitude":38.82523,"longitude":-104.702922,"website":"","facebook":"https://www.facebook.com/21stMedicalGroup","twitter":"https://twitter.com/USAFHealth","ice":"http://ice.disa.mil/index.cfm?fa=site&site_id=389"},
{"id":163,"title":"Pope Field, Pope Air Force Base","address":"283 Fortress St Pope Field, NC 28308","phone":"1-910-907-7673","img":"","icon":"","service_id":3,"latitude":35.176739,"longitude":-79.018999,"website":"http://www.pope.af.mil/","facebook":"https://www.facebook.com/AirForceMedicalService","twitter":"https://twitter.com/USAFHealth","ice":"http://ice.disa.mil"},
{"id":164,"title":"Premier Medical Home","address":"3920 North Union Boulevard, Ste 100 Colorado Springs, CO 80907","phone":"1-719-526-2273","img":"08A1DFE0-8CE6-474B-918C9BDBBBE1B73Atmp-225.png","icon":"32DA5C89-211F-4FBC-A1EB1D16BDCB6196tmp-224.png","service_id":1,"latitude":38.88767,"longitude":-104.7875,"website":"http://www.evans.amedd.army.mil/PAHC/pmc.htm","facebook":"","twitter":"","ice":"http://ice.disa.mil/index.cfm?fa=site&site_id=924"},
{"id":165,"title":"Presidio of Monterey Army Health Clinic","address":"473 Cabrillo St Suite A1A Monterey, CA 93944","phone":"1-831-242-4117","img":"21AE782A-A239-4A47-A8329958C5C8525Ctmp-191.png","icon":"C15A59CD-A2D0-4FA1-8B47717674AB62C1tmp-190.png","service_id":1,"latitude":36.6057306,"longitude":-121.9093845,"website":"http://www.calmed.amedd.army.mil","facebook":"https://www.facebook.com/presidioofmontereyarmyhealthclinic/","twitter":"","ice":"http://ice.disa.mil/index.cfm?fa=service_provider_list&site_id=531&service_category_id=11&dep=*DoD"},
{"id":166,"title":"Puyallup Community Medical Home","address":"10507 156th St E, Ste 112 Puyallup, WA 98374","phone":"1-253-477-5053","img":"E29F9E65-B991-47AC-A9A76996D90DBDF9tmp-75.png","icon":"7D7FE9EA-3EBA-4F5D-BA7B0097EE34390Ctmp-72.png","service_id":1,"latitude":47.114708,"longitude":-122.288722,"website":"http://www.mamc.amedd.army.mil/locations/puyallup-clinic.aspx","facebook":"https://www.facebook.com/pages/Madigan-Puyallup-Community-Medical-Home/128243693918027","twitter":"","ice":"http://ice.disa.mil/index.cfm?fa=service_provider_list&site_id=957&service_category_id=11"},
{"id":167,"title":"Raymond W. Bliss Army Health Center","address":"2240 E. Winrow Ave Fort Huachuca, AZ 85613-7079","phone":"1-520-533-9200","img":"858BF588-6D9E-4221-B07A58B5D3612EEEtmp-153.png","icon":"C5E28B1E-CFF5-42F5-BFD55F015539FBA9tmp-152.png","service_id":1,"latitude":31.5454636,"longitude":-110.341073,"website":"http://rwbach.huachuca.amedd.army.mil/","facebook":"https://www.facebook.com/RWBAHC/","twitter":"","ice":"http://ice.disa.mil/index.cfm?fa=site&site_id=277"},
{"id":168,"title":"Reception Medical Clinic","address":"1890 Washington Rd Fort Jackson, SC 29207","phone":"1-803-751-7660","img":"3F85E1FD-B60C-4817-9BBE649A49C7E54Ctmp-284.png","icon":"7E11C78F-E986-4361-90BB17B982F2FAC2tmp-283.png","service_id":1,"latitude":33.994691,"longitude":-80.939631,"website":"http://www.moncrief.amedd.army.mil/HealthcareServices/SitePages/Reception%20Medical%20Clinic.aspx","facebook":"","twitter":"","ice":"http://ice.disa.mil/index.cfm?fa=service_provider_list&service_category_id=11&site_id=147&dep=DoD"},
{"id":169,"title":"Richard G. Wilson Army Medical Home","address":"12683 West 16th St Ft Leonard Wood, MO 65473","phone":"1-573-596-1680","img":"2A42337C-A9EB-4FFC-ADDEFADEB90C6A39tmp-30.png","icon":"EE6EF988-EF60-45F2-84943843E798EF01tmp-29.png","service_id":1,"latitude":37.747007,"longitude":-92.127459,"website":"http://glwach.amedd.army.mil","facebook":"https://www.facebook.com/GLWACH","twitter":"https://twitter.com/glwachonflw","ice":"http://ice.disa.mil/"},
{"id":170,"title":"Richmond Hill Medical Home","address":"2451A US Highway 17 Richmond Hill, GA 31324","phone":"1-912-435-7119","img":"92C940BA-2646-4B2B-95C96EAE095F1214tmp-286.png","icon":"6C783016-6DEF-46B6-9AD3ECB2F07E3C83tmp-285.png","service_id":1,"latitude":31.946858,"longitude":-81.311807,"website":"http://winn.amedd.army.mil/HealthcareServices/SitePages/Richmond%20Hill.aspx","facebook":"https://www.facebook.com/winncares","twitter":"https://twitter.com/winn_ach","ice":"http://ice.disa.mil/index.cfm?fa=site&site_id=919"},
{"id":171,"title":"Rio Bravo Medical Home","address":"10460 Vista Del Sol Drive, Ste 300 El Paso, TX 79925","phone":"1-915-742-2273","img":"3D608225-064F-4346-AA464C65713337D3tmp-193.png","icon":"66A160D2-3FCF-4DE4-806FA32E4E0F17A3tmp-192.png","service_id":1,"latitude":31.756569,"longitude":-106.3462,"website":"https://www.wbamc.amedd.army.mil/PCMH/RioBravo/","facebook":"https://www.facebook.com/WBAMC1","twitter":"https://twitter.com/WBAMCArmyMed","ice":"http://ice.disa.mil/index.cfm?fa=site&site_id=435"},
{"id":172,"title":"Robins Air Force Base","address":"655 7th St Building 700 TRICARE Operations Robins AFB, Georgia 31098-2227","phone":"1-478-327-7850","img":"","icon":"","service_id":3,"latitude":32.603908,"longitude":-83.585664,"website":"","facebook":"https://www.facebook.com/78MDG?ref=ts","twitter":"https://twitter.com/USAFHealth","ice":"http://ice.disa.mil/index.cfm?fa=site&site_id=519"},
{"id":173,"title":"Robinson Family Medicine Clinic","address":"Fort Carson, 7490, Sutherland Circle & Provide Comfort Rd, Colorado Springs, CO 80913","phone":"1-719-526-7764","img":"5AC06D83-EEC3-4C04-818397E0718147F6tmp-43.png","icon":"CAD3A3B0-4924-470A-95972794EC0EB217tmp-42.png","service_id":1,"latitude":38.71988,"longitude":-104.79242,"website":"http://www.evans.amedd.army.mil/RFMC/","facebook":"","twitter":"","ice":"http://ice.disa.mil/index.cfm?fa=site&site_id=924"},
{"id":174,"title":"Robinson Health Clinic","address":"Bldg C-1722 Tagaytay Drive Fort Bragg, NC 28310","phone":"1-910-907-8282","img":"195F5A8F-0E9D-4BAF-8D33664CB4D455A2tmp-213.png","icon":"88F03429-D6BD-43D9-9E5F8738C75851E6tmp-212.png","service_id":1,"latitude":35.1426389,"longitude":-79.0349109,"website":"http://www.wamc.amedd.army.mil","facebook":"https://www.facebook.com/WomackAMC","twitter":"https://twitter.com/WomackAMC","ice":"http://ice.disa.mil/index.cfm?fa=service_provider_list&site_id=1082&dep=%2aDoD"},
{"id":175,"title":"Rodriguez Army Health Clinic","address":"21 Chrisman Rd Fort Buchanan, PR 00934","phone":"1-787-707-4393","img":"4F54F480-8054-49E0-BEDB81607E8D5569tmp-161.png","icon":"221F68E7-239F-4867-AD8474120C1EAD52tmp-160.png","service_id":1,"latitude":18.41204,"longitude":-66.111066,"website":"http://rodriguez.amedd.army.mil/SitePages/Home.aspx","facebook":"https://www.facebook.com/RodriguezArmyHealthClinic","twitter":"","ice":"http://ice.disa.mil"},
{"id":176,"title":"Russell Collier Clinic","address":"94043 Loop Rd West Fort Hood, TX 76544","phone":"1-254-553-3146","img":"42C47410-4338-42E5-92AEB796F36C342Dtmp-121.png","icon":"7552AC3E-6B09-4686-8C422FB92779E46Atmp-120.png","service_id":1,"latitude":31.144443,"longitude":-97.7714,"website":"https://www.crdamc.amedd.army.mil/rus-col/","facebook":"https://www.facebook.com/CRDAMC/?ref=br_tf","twitter":"https://twitter.com/CRDAMC","ice":"http://ice.disa.mil/index.cfm?fa=service_provider_list&site_id=73&service_category_id=11"},
{"id":177,"title":"Schertz Medical Home","address":"6051 FM 3009 Schertz, TX 78154","phone":"1-210-916-3000","img":"5EE280D6-8867-43B8-914DA7B697729C46tmp-202.png","icon":"B67FF337-1BCB-40D4-B95C9BF35E0CBD71tmp-201.png","service_id":1,"latitude":29.6070866,"longitude":-98.2811264,"website":"https://www.bamc.amedd.army.mil/departments/schertz-medical/","facebook":"https://www.facebook.com/BrookeArmyMedicalCenter","twitter":"https://twitter.com/BrookeArmyMed","ice":"http://ice.disa.mil/index.cfm?fa=service_provider_list&site_id=934"},
{"id":178,"title":"Schofield Barracks - 2BCT SCMH","address":"677 Brannon Rd Schofield Barracks, HI","phone":"1-808-433-8210","img":"3B891EC7-6FB7-4922-967E1CF8D0BDC5D2tmp-55.png","icon":"C55A14E0-9B2F-421E-B585886CBD2913AFtmp-54.png","service_id":1,"latitude":21.497,"longitude":-158.0581,"website":"https://sp.tamc.amedd.army.mil/sbhc/default.aspx","facebook":"https://www.facebook.com/usahc.schofieldbarracks/","twitter":"","ice":"http://ice.disa.mil/index.cfm?fa=site&site_id=51"},
{"id":179,"title":"Schofield Barracks - 3BCT SCMH","address":"677 Brannon Rd Schofield Barracks, HI","phone":"1-808-433-8276","img":"0494F01C-8BB6-48A9-AD45AEDD0E7D10B3tmp-288.png","icon":"9F2F2716-2BB6-4A55-A8CF6A1DC33591F9tmp-287.png","service_id":1,"latitude":21.497,"longitude":-158.0581,"website":"https://sp.tamc.amedd.army.mil/sbhc/default.aspx","facebook":"https://www.facebook.com/usahc.schofieldbarracks/","twitter":"","ice":"http://ice.disa.mil/index.cfm?fa=site&site_id=51"},
{"id":180,"title":"Schofield Barracks - 8th TSC SCMH","address":"681 Brannon Rd Schofield Barracks, HI","phone":"1-808-433-8229","img":"6040B2B3-2D58-4B39-8C78F35512CC0AC5tmp-290.png","icon":"2E373D55-2316-458F-A988759330C35CA6tmp-289.png","service_id":1,"latitude":21.497,"longitude":-158.0581,"website":"https://sp.tamc.amedd.army.mil/sbhc/default.aspx","facebook":"https://www.facebook.com/usahc.schofieldbarracks/","twitter":"","ice":"http://ice.disa.mil/index.cfm?fa=site&site_id=51"},
{"id":181,"title":"Schofield Barracks - Combat Aviation BDE SCMH","address":"678 Brannon Rd Schofield Barracks, HI","phone":"1-808-433-8401","img":"0E44F5AE-D433-4AD5-89654E863ED0750Atmp-95.png","icon":"C7D41ED9-1F47-4437-B38E0F36D0E5158Etmp-94.png","service_id":1,"latitude":21.497,"longitude":-158.0581,"website":"https://sp.tamc.amedd.army.mil/sbhc/default.aspx","facebook":"https://www.facebook.com/usahc.schofieldbarracks/","twitter":"","ice":"http://ice.disa.mil/index.cfm?fa=site&site_id=51"},
{"id":182,"title":"Schofield Barracks - Fires & Sustainment SCMH","address":"681 Brannon Rd Schofield Barracks, HI","phone":"1-808-433-8475","img":"D8A6B478-FFE0-423C-A93A6C722FF4EDF1tmp-293.png","icon":"E2FE54D5-C65F-4036-909E2A229DD6ACF7tmp-292.png","service_id":1,"latitude":21.497,"longitude":-158.0581,"website":"https://sp.tamc.amedd.army.mil/sbhc/default.aspx","facebook":"https://www.facebook.com/usahc.schofieldbarracks/","twitter":"","ice":"http://ice.disa.mil/index.cfm?fa=site&site_id=51"},
{"id":183,"title":"Schriever Air Force Base Clinic","address":"220 Falcon Parkway Schriever AFB, Colorado 80912","phone":"1-719-524-2273","img":"","icon":"","service_id":3,"latitude":38.808702,"longitude":-104.528217,"website":"http://www.schriever.af.mil/units/baseclinic.asp","facebook":"https://www.facebook.com/SchrieverClinic?fref=ts","twitter":"https://twitter.com/USAFHealth","ice":"http://ice.disa.mil/index.cfm?fa=site&site_id=390"},
{"id":184,"title":"Scott Air Force Base","address":"310 W. Losey St Building 1530 Scott AFB, Illinois 62225-5252","phone":"1-618-256-9355","img":"","icon":"","service_id":3,"latitude":38.543867,"longitude":-89.871475,"website":"http://www.airforcemedicine.af.mil/MTF/Scott/","facebook":"https://www.facebook.com/ScottAir Force BaseClinic","twitter":"https://twitter.com/USAFHealth","ice":"http://ice.disa.mil/index.cfm?fa=site&site_id=525&dep=DoD"},
{"id":185,"title":"Screaming Eagle Medical Home","address":"Medical Office Building One, 647 Dunlop Lane, Ste. 301 Clarksville, TN 37043","phone":"1-270-431-4677","img":"495F1650-6679-46DA-9897295F9146BD4Ctmp-295.png","icon":"8AF93BB4-0929-44DC-91ACF0770FB6BF9Etmp-294.png","service_id":1,"latitude":36.5830719,"longitude":-87.272804,"website":"http://blanchfield.amedd.army.mil","facebook":"https://www.facebook.com/BACH.Fort.Campbell/","twitter":"https://twitter.com/BACH_Healthcare","ice":"http://ice.disa.mil/index.cfm?fa=card&site_id=339&service_provider_id=89939"},
{"id":186,"title":"Seymour Johnson Air Force Base","address":"1050 Jabara Ave Seymour Johnson AFB, North Carolina 27531-2310","phone":"1-919-722-0733","img":"","icon":"","service_id":3,"latitude":35.36073,"longitude":-77.96241,"website":"","facebook":"https://www.facebook.com/AFMS-Seymour-Johnson-4th-Medical-Group-125968450780855","twitter":"https://twitter.com/USAFHealth","ice":"http://ice.disa.mil/index.cfm?fa=site&site_id=527"},
{"id":187,"title":"SHAPE Army Health Clinic","address":"Ave D'Oslo 7020, Mons, Belgium","phone":"32-65-44-5886","img":"44FF6AEC-101F-4A5E-8F7C9A82FC8CEA92tmp-155.png","icon":"D7F6087D-BC69-4AF4-895CDA39E4C0B4C6tmp-154.png","service_id":1,"latitude":50.503717,"longitude":3.975104,"website":"http://rhce.amedd.army.mil/shape/index.cfm","facebook":"https://www.facebook.com/SHAPEHealthcareFacility/","twitter":"","ice":"http://ice.disa.mil/index.cfm?fa=service_provider_list&site_id=550&service_category_id=11"},
{"id":188,"title":"Shaw Air Force Base","address":"431 Meadowlark St Shaw AFB, South Carolina 29152-5019","phone":"1-803-895-2273","img":"","icon":"","service_id":3,"latitude":33.96999,"longitude":-80.488744,"website":"http://www.shaw.af.mil/Units/MedicalServices.aspx","facebook":"https://www.facebook.com/20thmedicalgroup?ref=ts","twitter":"https://twitter.com/USAFHealth","ice":"http://ice.disa.mil/index.cfm?fa=site&site_id=247"},
{"id":189,"title":"Sheppard Air Force Base","address":"149 Hart St Sheppard AFB, Texas 76311-3478","phone":"1-940-676-1847","img":"","icon":"","service_id":3,"latitude":33.97652,"longitude":-98.517413,"website":"http://www.sheppard.af.mil/Units/SheppardClinic.aspx","facebook":"https://www.facebook.com/AirForceMedicalService","twitter":"https://twitter.com/USAFHealth","ice":"http://ice.disa.mil/index.cfm?fa=site&site_id=335"},
{"id":190,"title":"Soldier Centered Medical Home","address":"Bldg C1515, Mississippi Ave Fort Polk, LA 71459-5110","phone":"1-337-531-4171","img":"5A2CC891-C00D-4F2C-83980D58AA25BCF7tmp-67.png","icon":"5BBE524E-8656-4E63-8D1F857A0B1A12FFtmp-66.PNG","service_id":1,"latitude":31.057252,"longitude":-93.205947,"website":"http://bjach.polk.amedd.army.mil/","facebook":"https://www.facebook.com/BayneJonesACH","twitter":"https://twitter.com/BayneJonesACH","ice":"http://ice.disa.mil/index.cfm?fa=site&site_id=257"},
{"id":191,"title":"Soldier Family Medical Center (West Bliss)","address":"2496 Ricker Rd El Paso, TX 79925","phone":"1-915-742-2273","img":"E76ABCE7-431C-4DFE-A010A00DE8B12D5Btmp-297.png","icon":"11BC82F9-B79B-4D65-AD6027830BF0B5B1tmp-296.png","service_id":1,"latitude":31.81058,"longitude":-106.419537,"website":"https://www.wbamc.amedd.army.mil/PCMH/SFMC/","facebook":"https://www.facebook.com/WBAMC1","twitter":"https://twitter.com/WBAMCArmyMed","ice":"http://ice.disa.mil/index.cfm?fa=site&site_id=435"},
{"id":192,"title":"South Sound Community Medical Home","address":"500 Lilly Rd NE, Ste 120 Olympia, WA 98506","phone":"1-253-477-5110","img":"48A601E1-B763-4DF8-85BA423DF3B36BB5tmp-211.png","icon":"2E40ED5B-43FD-44AA-847A75A8941E415Btmp-210.png","service_id":1,"latitude":47.053828,"longitude":-122.843367,"website":"http://www.mamc.amedd.army.mil/locations/south-sound-clinic.aspx","facebook":"","twitter":"","ice":"http://ice.disa.mil/index.cfm?fa=service_provider_list&site_id=957&service_category_id=11"},
{"id":193,"title":"SPC Taylor J. Burk Clinic","address":"Building 5026, Camp Bullis Rd San Antonio, TX 78257","phone":"1-210-916-3000","img":"2FFE0057-752C-4004-A520CB98A411A9D3tmp-299.png","icon":"53B1F701-2C70-44E6-A246A7964D2A57BEtmp-298.png","service_id":1,"latitude":29.6382003,"longitude":-98.5797172,"website":"https://www.bamc.amedd.army.mil/departments/family-medicine/fms-taylor-burk-health-clinic.asp","facebook":"https://www.facebook.com/BrookeArmyMedicalCenter","twitter":"https://twitter.com/BrookeArmyMed","ice":"http://ice.disa.mil/index.cfm?fa=service_provider_list&site_id=934"},
{"id":194,"title":"Stuttgart Army Heatlh Clinic","address":"Pennsylvania Strasse 2300 Stuttgart 70569","phone":"49-6371-9464-2900","img":"1F9926C5-6FAC-4934-BC285116815A0422tmp-301.png","icon":"70518176-55DB-4C2F-816A25FA88A14AEDtmp-300.png","service_id":1,"latitude":48.684879,"longitude":9.042509,"website":"http://rhce.amedd.army.mil/stuttgart/index.cfm","facebook":"https://www.facebook.com/StuttgartHealthClinic","twitter":"","ice":"https://ice.disa.mil/index.cfm?fa=service_provider_list&site_id=23&service_category_id=11"},
{"id":195,"title":"Thomas Moore Health Clinic","address":"Building 2245, 58th St and 761st Tank Battalion Ave Fort Hood, TX 76544","phone":"1-254-553-2755","img":"748F0352-8CEC-488A-AE08152E4C12C41Dtmp-125.png","icon":"E86F66CD-5ED8-4324-95293F9A8AF91755tmp-124.png","service_id":1,"latitude":31.139557,"longitude":-97.775089,"website":"https://www.crdamc.amedd.army.mil/tom-moore/","facebook":"https://www.facebook.com/CRDAMC/?ref=br_tf","twitter":"https://twitter.com/CRDAMC","ice":"http://ice.disa.mil/index.cfm?fa=service_provider_list&site_id=73&service_category_id=11"},
{"id":196,"title":"Tinker Air Force Base","address":"7050 S Air Depot Boulevard Building 1094 Tinker AFB, Oklahoma 73145-8102","phone":"1-405-582-6201","img":"","icon":"","service_id":3,"latitude":35.394895,"longitude":-97.406504,"website":"","facebook":"https://www.facebook.com/72MDG","twitter":"https://twitter.com/USAFHealth","ice":"http://ice.disa.mil/index.cfm?fa=site&site_id=534"},
{"id":197,"title":"Travis Air Force Base","address":"101 Bodin Circle Building 777 Travis AFB, California 94535-1801","phone":"1-707-423-3000","img":"","icon":"","service_id":3,"latitude":38.270022,"longitude":-121.963781,"website":"http://www.travis.af.mil/units/dgmc/","facebook":"https://www.facebook.com/pages/David-Grant-USAF-Medical-Center/152672478078359","twitter":"https://twitter.com/USAFHealth","ice":"http://ice.disa.mil/index.cfm?fa=site&site_id=536"},
{"id":198,"title":"Tripler Army Medical Center","address":"1 Jarrett White Rd Honolulu, HI 96859","phone":"1-808-433-3300","img":"41400561-0B8D-4CD6-98A60C86DFF05030tmp-76.png","icon":"ACA65A3F-B284-482A-8AEB4AA9A6A6D948tmp-32.png","service_id":1,"latitude":21.3607,"longitude":-157.8909887,"website":"https://www.tamc.amedd.army.mil/","facebook":"https://www.facebook.com/TriplerArmyMedicalCenter","twitter":"https://twitter.com/TriplerAMC","ice":"http://ice.disa.mil/index.cfm?fa=site&site_id=51"},
{"id":199,"title":"Troop Medical Center 12","address":"Bldg 7015 Murphy Loop, Hood Army Airfield Fort Hood, TX 76544","phone":"1-254-285-6803","img":"B8203FA7-E568-478B-8F8CA5418E35B4A5tmp-303.png","icon":"31CC9137-8162-4C13-AF54AAFFDA8A7C02tmp-302.png","service_id":1,"latitude":31.146481,"longitude":-97.713507,"website":"https://www.crdamc.amedd.army.mil/TMC12/","facebook":"https://www.facebook.com/CRDAMC/?ref=br_tf","twitter":"https://twitter.com/CRDAMC","ice":"http://ice.disa.mil/index.cfm?fa=service_provider_list&site_id=73&service_category_id=11"},
{"id":200,"title":"Troop Medical Clinic #4 (EAMC)","address":"Bldg 21712, 428 22nd St Fort Gordon, GA 30905","phone":"1-706-787-7300","img":"","icon":"85E86E09-9DE0-401C-83838C35C6BA938Ctmp-159.png","service_id":1,"latitude":33.4250556,"longitude":-82.1599387,"website":"","facebook":"","twitter":"","ice":"http://ice.disa.mil"},
{"id":201,"title":"Troop Medical Clinic 1 (KAHC)","address":"Bldg 3219, B Ave Fort Lee, VA 23801","phone":"1-804-734-6093","img":"F9879A3C-F698-453D-9F5794924C9ADD4Ctmp-223.png","icon":"721450A1-9694-448B-B0895924AF319693tmp-222.png","service_id":1,"latitude":37.23112,"longitude":-77.341167,"website":"http://kenner.nrmc.amedd.army.mil/SitePages/Home.aspx","facebook":"https://www.facebook.com/kenner.ftlee","twitter":"","ice":"http://ice.disa.mil/index.cfm?fa=site&site_id=446"},
{"id":202,"title":"Troop Medical Clinic Camp Red Cloud","address":"Bldg #S-306, APO, Armed Forces Pacific, 96258-0189","phone":"DSN: 732-6011, Comm: 0505-732-6011","img":"295BFF5B-B7F9-4A48-9D48F38801A49178tmp-84.png","icon":"","service_id":1,"latitude":null,"longitude":null,"website":"","facebook":"https://www.facebook.com/CampRedCloudTroopMedicalClinic/","twitter":"","ice":"https://ice.disa.mil/index.cfm?fa=service_provider_list&site_id=260&service_category_id=11"},
{"id":203,"title":"Troop Medical Clinic Camp Stanley","address":"","phone":"DSN: 732-5313/5314, Comm: 0505-732-5313","img":"","icon":"","service_id":1,"latitude":null,"longitude":null,"website":"","facebook":"","twitter":"","ice":"https://ice.disa.mil/index.cfm?fa=service_provider_list&site_id=261&service_category_id=11"},
{"id":204,"title":"Tuttle Army Health Clinic","address":"230 Duncan Drive, Bldg 1440 Savannah, GA 31409 Hunter AAF","phone":"1-912-315-5274","img":"F3640875-B31D-42D0-B0A762658FDC3AF3tmp-182.png","icon":"915979A7-E349-4E8C-80221142E76FA14Btmp-181.png","service_id":1,"latitude":32.029837,"longitude":-81.124635,"website":"http://winn.amedd.army.mil/HealthcareServices/SitePages/Tuttle%20Army%20Health%20Clinic.aspx","facebook":"https://www.facebook.com/winncares","twitter":"https://twitter.com/winn_ach","ice":"http://ice.disa.mil/index.cfm?fa=site&site_id=919"},
{"id":205,"title":"Tyndall Air Force Base","address":"340 Magnolia Circle Tyndall AFB, Florida 32403-5612","phone":"1-850-283-2778","img":"7AFB4A97-092C-41A4-9C6501714E75A59Ftmp-163.png","icon":"BCA1C1FA-3411-4603-8B4B76B639680AF3tmp-162.png","service_id":3,"latitude":30.069648,"longitude":-85.605155,"website":"http://www.airforcemedicine.af.mil/MTF/Tyndall/","facebook":"https://www.facebook.com/325thMedicalGroup?ref=ts","twitter":"https://twitter.com/USAFHealth","ice":"http://ice.disa.mil/index.cfm?fa=site&site_id=537"},
{"id":206,"title":"U.S Naval Hospital Sigonella, Italy","address":"PSC 836 BOX 2670 - FPO AE, Sigonella, Italy 9636","phone":"39-095-56-3842","img":"Sigonella.png","icon":"EmbNHSigonellaItaly.png","service_id":2,"latitude":37.4081248,"longitude":14.9112368,"website":"http://www.med.navy.mil/sites/sigonella","facebook":"https://www.facebook.com/pages/US-Naval-Hospital-Sigonella/160997102193?fref=ts","twitter":"https://twitter.com/nas_sigonella","ice":"http://ice.disa.mil/index.cfm?fa=site&site_id=1108&dep=%2aDoD"},
{"id":207,"title":"U.S Naval Hospital Yokosuka, Japan","address":"PSC 475, Box, FPO AP, Yokosuka, Japan 96350-9998","phone":"81-3117-43-5334","img":"Naval_Hospital_Yokosuka.jpg","icon":"Naval_Hospital_Yokosuka_Logo.png","service_id":2,"latitude":35.286346,"longitude":139.67141,"website":"http://www.med.navy.mil/sites/nmw/Commands/Pages/USNH%20Yokosuka.aspx","facebook":"https://www.facebook.com/usnhyokosuka","twitter":"https://twitter.com/usnhyokosuka","ice":"http://ice.disa.mil/index.cfm?fa=site&site_id=1205&dep=DoD"},
{"id":208,"title":"U.S. Army Health Clinic Rock Island Arsenal","address":"110 Rodman Ave Rock Island, IL 61299-7240","phone":"1-309-782-0865","img":"","icon":"","service_id":1,"latitude":41.5166297,"longitude":-90.54180432,"website":"http://www.iach.knox.amedd.army.mil/SitePages/Rock%20Island%20Clinic.aspx","facebook":"https://www.facebook.com/Rock-Island-Arsenal-Health-Clinic-1657726937799405/","twitter":"","ice":"http://ice.disa.mil/index.cfm?fa=service_provider_list&site_id=444&service_category_id=11"},
{"id":209,"title":"U.S. Naval Dental Center Okinawa, Japan","address":"3D DEN BN 3D MLG, UNIT 38450, FPO AP, Okinawa, Japan 96604-8450","phone":"81-611-745-2390","img":"Naval_Dental_Center_Okinawa-Logo.jpg","icon":"Naval_Dental_Center_Okinawa-Logo.png","service_id":2,"latitude":26.293035,"longitude":127.774049,"website":"http://www.med.navy.mil/sites/nmw/Commands/Pages/NDC%20Okinawa.aspx","facebook":"https://www.facebook.com/usnho/","twitter":"https://twitter.com/usnho","ice":"http://ice.disa.mil/"},
{"id":210,"title":"U.S. Naval Hospital Guam","address":"Bldg 1 Farenholt Ave, Agana Heights, Guam 96910","phone":"1-671-344-9340","img":"Naval_Hospital_Guam.jpg","icon":"Naval_Hospital_Guam-Logo.png","service_id":2,"latitude":13.473859,"longitude":144.737551,"website":"http://www.med.navy.mil/sites/usnhguam/Pages/default.aspx","facebook":"https://www.facebook.com/USNHGUAM","twitter":"https://twitter.com/usnhguam","ice":"http://ice.disa.mil/index.cfm?fa=site&site_id=169"},
{"id":211,"title":"U.S. Naval Hospital Guantanamo Bay, Cuba","address":"PSC 810 Box 185 FPO, AE, Guantanamo Bay, Cuba 09589-0002","phone":"011-53-991-2360","img":"Guantanamo%20Bay.jpg","icon":"EmbNHGuantanamoBaCuba.png","service_id":2,"latitude":19.9026482,"longitude":-75.1001687,"website":"http://www.med.navy.mil/sites/gtmo","facebook":"https://www.facebook.com/NSGuantanamoBay/","twitter":"","ice":"http://ice.disa.mil/index.cfm?fa=site&site_id=1098&dep=DoDMailing"},
{"id":212,"title":"U.S. Naval Hospital Naples, Italy","address":"PSC 827 Box 1000 FPO AE, Naples, Italy 09617-1000","phone":"39-081-811-6000","img":"Naples.png","icon":"EmbNHNaples.png","service_id":2,"latitude":26.2121538,"longitude":-81.7715107,"website":"http://www.med.navy.mil/sites/napoli","facebook":"https://www.facebook.com/US-Naval-Hospital-Naples-134931379885080/","twitter":"","ice":"http://ice.disa.mil/index.cfm?fa=service_provider_list&site_id=708&service_category_id=11"},
{"id":213,"title":"U.S. Naval Hospital Okinawa, Japan","address":"Camp Foster, Bldg. 960 Tarawa Rd, Okinawa, Japan","phone":"81-611-746-7555","img":"Naval_Hospital_Okinawa.jpg","icon":"Naval_Hospital_Okinawa-Logo.png","service_id":2,"latitude":26.293035,"longitude":127.774049,"website":"http://www.med.navy.mil/sites/nhoki/Pages/default.aspx","facebook":"https://www.facebook.com/usnho/","twitter":"https://twitter.com/usnho","ice":"http://ice.disa.mil/index.cfm?fa=site&site_id=1243"},
{"id":214,"title":"U.S. Naval Hospital Rota, Spain","address":"PSC 819 Box 18 FPO AE, Rota, Spain 09645-0018","phone":"34-956-82-3305","img":"Rota.png","icon":"EmbNHRota.png","service_id":2,"latitude":36.6387302,"longitude":-6.3321027,"website":"http://www.med.navy.mil/sites/nhrota","facebook":"https://www.facebook.com/US-Naval-Hospital-Rota-Spain-156021124460161/","twitter":"","ice":"http://ice.disa.mil/index.cfm?fa=service_provider_list&site_id=1037&dep=*DoD"},
{"id":215,"title":"USAF Academy","address":"4102 Pinion Drive USAF Academy, CO 80840-4000","phone":"1-719-524-2273","img":"CECB8CEA-DC80-44F7-9B36AF2AC1E61DA2tmp-305.png","icon":"D163EB45-BA06-4EC0-B5A275C58E317BB0tmp-304.png","service_id":3,"latitude":38.991811,"longitude":-104.884873,"website":"http://www.airforcemedicine.af.mil/MTF/Air-Force-Academy","facebook":"https://www.facebook.com/10thMedicalGroup","twitter":"https://twitter.com/USAFHealth","ice":"http://ice.disa.mil/index.cfm?fa=service_provider_list&site_id=393&service_category_id=11&dep=*DoD"},
{"id":216,"title":"Vance Air Force Base","address":"527 Gott Rd Building 810 Vance AFB, OK 73705-5105","phone":"1-580-213-7416","img":"","icon":"","service_id":3,"latitude":36.34274,"longitude":-97.901808,"website":"http://www.vance.af.mil/","facebook":"https://www.facebook.com/71MDG","twitter":"https://twitter.com/USAFHealth","ice":"http://ice.disa.mil/index.cfm?fa=site&site_id=538"},
{"id":217,"title":"Vandenberg Air Force Base","address":"338 South Dakota Building 13850 Vandenberg AFB, CA 93437-5300","phone":"1-805-606-2273","img":"1C877CE4-A6FA-4223-A747F47AC8907D44tmp-307.png","icon":"03A2BBBC-7B69-49DE-A703FC6A293F887Btmp-306.png","service_id":3,"latitude":34.742884,"longitude":-120.542218,"website":"http://www.vandenberg.af.mil/units/30thmedicalgroup/index.asp","facebook":"https://www.facebook.com/30thMedicalGroup","twitter":"https://twitter.com/USAFHealth","ice":"http://ice.disa.mil/index.cfm?fa=site&site_id=384"},
{"id":218,"title":"Vicenza Army Health Center","address":"Via Giorgio Corbetta 17 36100 Vicenza VI, Italy","phone":"39-0444-61-9000","img":"863E5DB9-EEDE-4110-8BDD8D766B44FEC4tmp-219.png","icon":"D9281DE9-F9BE-42F6-B72FD489859D6F21tmp-218.png","service_id":1,"latitude":45.548155,"longitude":11.577639,"website":"http://rhce.amedd.army.mil/vicenza/","facebook":"https://www.facebook.com/VicenzaArmyHealth/","twitter":"","ice":"http://ice.disa.mil/"},
{"id":219,"title":"Vilseck Army Health Clinic","address":"Gut 1, Vilseck 92249","phone":"49-6371-9464-2300","img":"20930304-9D55-4388-B081C92A8C0876D2tmp-309.png","icon":"A48FDB03-A03B-4871-92959F1EFCC2FF06tmp-308.png","service_id":1,"latitude":49.64131,"longitude":11.792774,"website":"http://rhce.amedd.army.mil/vilseck/index.cfm","facebook":"https://www.facebook.com/vilseckarmyhealthclinic","twitter":"","ice":"http://ice.disa.mil/index.cfm?fa=service_provider_list&site_id=320&service_category_id=11"},
{"id":220,"title":"Walter Reed National Military Medical Center","address":"8901 Rockville Pike, Bethesda, MD 20889","phone":"1-301-295-4000","img":"WRNMMC.jpg","icon":"EmbWRNMMC.jpg","service_id":2,"latitude":39.0005216,"longitude":-77.0955541,"website":"http://www.wrnmmc.capmed.mil/","facebook":"https://www.facebook.com/pages/Walter-Reed-National-Military-Medical-Center/295857217111107","twitter":"https://twitter.com/wrbethesda","ice":"http://ice.disa.mil/index.cfm?fa=site&site_id=781"},
{"id":221,"title":"Warren Michigan Health Clinic","address":"6501 E. Eleven Mile Rd Warren, MI 48397-5000","phone":"1-586-619-4408","img":"","icon":"71BFEF95-CA9C-49C2-90A5EF002F2FF4D5tmp-92.png","service_id":1,"latitude":42.4925,"longitude":-83.0415,"website":"","facebook":"","twitter":"","ice":"http://ice.disa.mil"},
{"id":222,"title":"Warrior Ohana Medical Home","address":"91-1010 Shangrila St Kapolei, HI 96707","phone":"1-808-433-5401","img":"A6BEAAC5-6BEE-4EE0-9D2502551F9602F9tmp-311.png","icon":"A463F8FA-B444-404A-91AD6084922AD51Ftmp-310.png","service_id":1,"latitude":21.3192048,"longitude":-158.0733628,"website":"https://www.tamc.amedd.army.mil/offices/womh/","facebook":"https://www.facebook.com/WarriorOhanaMH/","twitter":"https://twitter.com/TriplerAMC","ice":"http://ice.disa.mil/index.cfm?fa=site&site_id=51"},
{"id":223,"title":"Warrior Transition Unit Clinic","address":"Building 2245, 58th St and 761st Tank Battalion Ave Fort Hood, TX 76544","phone":"1-254-553-4268","img":"3F19B8BF-773C-4DC2-B2F52E159A5521C7tmp-71.png","icon":"3B64D291-1C35-49CF-84BEEBE05F80A261tmp-70.png","service_id":1,"latitude":31.139557,"longitude":-97.775089,"website":"https://www.crdamc.amedd.army.mil/tom-moore/","facebook":"https://www.facebook.com/CRDAMC/?ref=br_tf","twitter":"https://twitter.com/CRDAMC","ice":"http://ice.disa.mil/index.cfm?fa=service_provider_list&site_id=73&service_category_id=11"},
{"id":224,"title":"Weed Army Community Hospital","address":"Inner Loop Rd and 4th St Fort Irwin, CA 92310","phone":"1-760-380-7340","img":"A5785616-67A5-4BFB-A8E9601B73455CACtmp-34.png","icon":"DDE59529-E417-4D78-A653A4EC9D67DD40tmp-33.png","service_id":1,"latitude":35.2661602,"longitude":-116.6905561,"website":"http://www.irwin.amedd.army.mil/","facebook":"https://www.facebook.com/WeedArmy/","twitter":"","ice":"http://ice.disa.mil/index.cfm?fa=site&site_id=443"},
{"id":225,"title":"Westover Medical Home","address":"10010 Rogers Crossing San Antonio, TX 78251","phone":"1-210-916-3000","img":"2A5E8375-3FD6-4A69-8EF3E54926B1CDEEtmp-207.png","icon":"4E5C33B8-5CFC-4D02-99D6C0C51FFA791Dtmp-206.png","service_id":1,"latitude":29.4623573,"longitude":-98.6873112,"website":"https://www.bamc.amedd.army.mil/departments/family-medicine/wmh.asp","facebook":"https://www.facebook.com/BrookeArmyMedicalCenter","twitter":"https://twitter.com/BrookeArmyMed","ice":"http://ice.disa.mil/index.cfm?fa=service_provider_list&site_id=934"},
{"id":226,"title":"Whiteman Air Force Base","address":"331 Sijan Ave Whiteman AFB, MO 65305-5001","phone":"1-660-687-2188","img":"63D540EA-94D3-4585-B12DD3F84D74A08Ftmp-313.png","icon":"8F866ECF-4F2C-4C1E-B62A442A02465FB2tmp-312.png","service_id":3,"latitude":38.727455,"longitude":-93.571092,"website":"http://www.airforcemedicine.af.mil/MTF/Whiteman/","facebook":"https://www.facebook.com/509MDG","twitter":"https://twitter.com/USAFHealth","ice":"http://ice.disa.mil/index.cfm?fa=site&site_id=543"},
{"id":227,"title":"Wiesbaden Army Health Clinic","address":"Flugplatz Erbenheim 1042, 65205 Wiesbaden","phone":"49-6371-9464-1300","img":"C602E4FF-B32B-471F-AE602A5F47F90230tmp-77.png","icon":"A34CB614-E9C8-4BA3-8F2E99AA43EB3EBDtmp-31.png","service_id":1,"latitude":50.04246,"longitude":8.325758,"website":"http://rhce.amedd.army.mil/wiesbaden/","facebook":"https://www.facebook.com/wiesbadenAHC/","twitter":"","ice":"http://ice.disa.mil/"},
{"id":228,"title":"William Beaumont Army Medical Center","address":"5005 N. Piedras St El Paso, TX 79920-5001","phone":"1-915-742-2121","img":"804CEB14-12F9-4C89-AD7009D3D76AEE57tmp-315.png","icon":"B9E2290E-FD27-4FB1-9D1184D027C615C8tmp-314.png","service_id":1,"latitude":31.82164,"longitude":-106.462484,"website":"https://www.wbamc.amedd.army.mil","facebook":"https://www.facebook.com/WBAMC1","twitter":"https://twitter.com/WBAMCArmyMed","ice":"http://ice.disa.mil/index.cfm?fa=site&site_id=435"},
{"id":229,"title":"Winder Family Medicine Clinic","address":"9119 Mil Park Ave Joint Base Lewis-McChord, WA 98433","phone":"1-253-477-0800","img":"5E5AE1A2-BAF0-4859-B9A2FA3A41DFAD58tmp-317.png","icon":"72C0B4E8-CDFE-4BD9-9845FCEEA2AA43D8tmp-316.png","service_id":1,"latitude":47.101459,"longitude":-122.556254,"website":"http://www.mamc.amedd.army.mil/locations/winder-clinic.aspx","facebook":"","twitter":"","ice":"http://ice.disa.mil/index.cfm?fa=service_provider_list&site_id=957&service_category_id=11"},
{"id":230,"title":"Winn Army Community Hospital","address":"1061 Harmon Ave Fort Stewart, GA 31314","phone":"1-912-435-6633","img":"1B5C02A5-C30E-4F24-A934D870B6C57E21tmp-83.png","icon":"33B6D7D4-76D1-4D44-9B3B8C0B39B1B975tmp-82.png","service_id":1,"latitude":31.872278,"longitude":-81.600249,"website":"http://winn.amedd.army.mil/SitePages/Home.aspx","facebook":"https://www.facebook.com/winncares","twitter":"https://twitter.com/winn_ach","ice":"http://ice.disa.mil/index.cfm?fa=site&site_id=919"},
{"id":231,"title":"Womack Army Medical Center","address":"2817 Reilly Rd Fort Bragg, NC 28310-7301","phone":"1-910-907-6000","img":"CC37D48C-2D03-4493-953B1726D7AA327Dtmp-319.png","icon":"59E4C86D-D84B-4BE1-84E6B0E1A9106865tmp-318.png","service_id":1,"latitude":35.1458889,"longitude":-79.0041609,"website":"http://www.wamc.amedd.army.mil","facebook":"https://www.facebook.com/WomackAMC","twitter":"https://twitter.com/WomackAMC","ice":"http://ice.disa.mil/index.cfm?fa=service_provider_list&site_id=1082&dep=%2aDoD"},
{"id":232,"title":"Wood Army Medical Home (Camp Walker)","address":"","phone":"DSN: 737-CARE (2273) or Comm: 0505-737-CARE (2273); Press 2, Press 5 or DSN: 764-5594/5595, Comm: 0505-764-5594/5595","img":"AECC95B7-A04E-44EF-A4BC36D59D85DB5Atmp-320.png","icon":"","service_id":1,"latitude":35.83594824,"longitude":128.5905313,"website":"https://www.korea.amedd.army.mil/Medical/PCMH/Walker/default.html","facebook":"https://www.facebook.com/Wood-Army-Medical-Home-Wood-Army-Health-Clinic-1380813485493412","twitter":"","ice":"https://ice.disa.mil/index.cfm?fa=service_provider_list&site_id=329&service_category_id=11"},
{"id":233,"title":"Wright-Patterson Air Force Base","address":"4881 Sugar Maple Drive Wright-Patterson AFB, OH 45433-5529","phone":"1-937-522-2778","img":"","icon":"","service_id":3,"latitude":39.805271,"longitude":-84.037141,"website":"","facebook":"https://www.facebook.com/pages/Wright-Patterson-Medical-Center/154284331269656","twitter":"https://twitter.com/USAFHealth","ice":"http://ice.disa.mil/index.cfm?fa=site&site_id=545"},
{"id":234,"title":"Yongsan USAHC/TMC","address":"Bldg 1663, APO, Armed Forces Pacific, 96205-0644","phone":"DSN: 737-CARE (2273) or Comm: 0505-737-CARE (2273); Press 2, Press 1 or DSN 725-6232, Comm: 0505-725-6232","img":"","icon":"","service_id":1,"latitude":null,"longitude":null,"website":"","facebook":"https://www.facebook.com/YSCMH/","twitter":"","ice":"http://ice.disa.mil/index.cfm?fa=service_provider_list&site_id=282&service_category_id=11"},
{"id":235,"title":"Yuma Proving Ground Medical Clinic","address":"Bldg. 990, 301 C St Yuma, AZ 85365","phone":"1-928-328-2502","img":"5EFB5CB6-FADA-4798-B1478972FA4FE933tmp-322.png","icon":"222DE016-CDCC-4694-945B9641AAB17877tmp-321.png","service_id":1,"latitude":32.8601196,"longitude":-114.44317,"website":"http://www.irwin.amedd.army.mil/pages/ypg.html","facebook":"","twitter":"","ice":"http://ice.disa.mil/index.cfm?fa=site&site_id=443"},
{"id":236,"title":"Fort Belvoir Community Hospital","address":"9300 DeWitt Loop, Fort Belvoir, VA 22060","phone":"571-231-3224","img":"AD90A81D-60CE-4501-AE51C7DAF68663BBtmp-413.png","icon":"C1355EEC-8021-4BC7-B113C6E569FB7991tmp-412.png","service_id":null,"latitude":38.7055584,"longitude":-77.1434006,"website":"http://www.fbch.capmed.mil/SitePages/Home.aspx","facebook":"http://www.facebook.com/belvoirhospital","twitter":"https://twitter.com/belvoirhospital","ice":"http://ice.disa.mil/index.cfm?fa=service_provider_list&site_id=336&service_category_id=11&dep=*DoD"},
{"id":237,"title":"BHC Makalapa (Pearl Harbor)","address":"Bldg 1407, 1253 Makalapa Road","phone":"(808) 473-1880, x92210","img":"80E88651-41DC-4110-8264C6818E0E32C5tmp-467.png","icon":"F0A267F6-E0D2-419F-9E72FA47815402ADtmp-456.png","service_id":null,"latitude":21.35372222,"longitude":-157.9372222,"website":"http://www.med.navy.mil/sites/nhch/Clinics/Pages/MakalapaClinic.aspx","facebook":"https://www.facebook.com/Naval-Health-Clinic-Hawaii-167982416574687/","twitter":"","ice":"http://ice.disa.mil/index.cfm?fa=site&site_id=1299"},
{"id":238,"title":"BHC Kaneohe Bay","address":"Bldg. 3089, D Street","phone":"(808) 257-3365 x97123","img":"F4702BF6-B09B-464E-8435FE4A16DF6AEBtmp-466.png","icon":"391E3597-763D-4503-989765BE35EF27F2tmp-458.png","service_id":null,"latitude":21.44472222,"longitude":-157.7613889,"website":"http://www.med.navy.mil/sites/nhch/Clinics/Pages/KaneoheBayBHC.aspx","facebook":"https://www.facebook.com/Naval-Health-Clinic-Hawaii-167982416574687/","twitter":"","ice":"http://ice.disa.mil/index.cfm?fa=site&site_id=1299"},
{"id":239,"title":"BHC Camp Smith ","address":"Camp H. M. Smith, Halawa, HI","phone":"(808) 477-2600 x96350","img":"F641FAD1-F347-4B85-A3AE8AD29E8AC3B9tmp-465.png","icon":"3C138ADC-66C6-4254-A233D03CA9DA3ACBtmp-460.png","service_id":null,"latitude":21.38638889,"longitude":-157.9083333,"website":"http://www.med.navy.mil/sites/nhch/Clinics/Pages/CampSmithBHC.aspx","facebook":"https://www.facebook.com/Naval-Health-Clinic-Hawaii-167982416574687/","twitter":"","ice":"http://ice.disa.mil/index.cfm?fa=card&sp=97322&s=1299&dep="},
{"id":240,"title":"BHC Wahiawa","address":"Bldg. 22, 500 Center Street","phone":"(808) 653-1400 x98110","img":"6ED4B82F-86B5-47BF-9C4C82A2326FECACtmp-464.png","icon":"7D4AA36E-9A5A-4361-A6143F9FF10D8348tmp-462.png","service_id":null,"latitude":21.51586111,"longitude":-158.0011111,"website":"http://www.med.navy.mil/sites/nhch/Clinics/Pages/WahiawaBHC.aspx","facebook":"https://www.facebook.com/Naval-Health-Clinic-Hawaii-167982416574687/","twitter":"","ice":"https://ice.disa.mil/index.cfm?fa=card&sp=97277&s=1299&dep="},
{"id":241,"title":"Shipyard Branch Health Clinic / Occupational Health","address":"Bldg. 1750, 480 Central Ave.","phone":"808-474-0625 x91349","img":"","icon":"","service_id":null,"latitude":21.3473,"longitude":-157.9573,"website":"http://www.med.navy.mil/sites/nhch/Clinics/Pages/ShipyardOccupationHlthClinic.aspx","facebook":"https://www.facebook.com/Naval-Health-Clinic-Hawaii-167982416574687/","twitter":"","ice":"https://ice.disa.mil/index.cfm?fa=card&sp=96228&s=1299&dep="}
]